[{"name":"Swift","id":5345,"start":"2014/07/19 21:00:00","percent_done":"10","location":{"lat":41.79319630553946,"lng":-92.85632354104891}},{"name":"Weber","id":959,"start":"2014/07/19 21:00:00","percent_done":"10","location":{"lat":39.85119995814748,"lng":-97.34751983582973}},{"name":"Haley","id":5535,"start":"2014/07/19 21:00:00","percent_done":"10","location":{"lat":40.40495584430173,"lng":-89.65425146454945}},{"name":"Gaylord","id":7293,"start":"2014/07/19 21:00:00","percent_done":"10","location":{"lat":41.69178806864657,"lng":-97.01720956447534}},{"name":"Kirlin","id":9425,"start":"2014/07/19 21:00:00","percent_done":"10","location":{"lat":39.1681396110449,"lng":-88.17950495905242}},{"name":"Orn","id":2814,"start":"2014/07/19 21:00:00","percent_done":"10","location":{"lat":39.53618668266572,"lng":-98.48416896527633}},{"name":"Fadel","id":1586,"start":"2014/07/19 21:00:00","percent_done":"10","location":{"lat":40.40980135756545,"lng":-93.63047347301617}},{"name":"West","id":8762,"start":"2014/07/19 21:00:00","percent_done":"10","location":{"lat":41.81092386869714,"lng":-96.7956920698285}},{"name":"Morissette","id":5669,"start":"2014/07/19 21:00:00","percent_done":"10","location":{"lat":39.452152134059,"lng":-94.8001080638729}},{"name":"Sanford","id":6969,"start":"2014/07/19 21:00:00","percent_done":"10","location":{"lat":39.57949662525207,"lng":-90.30932875596918}},{"name":"Borer","id":357,"start":"2014/07/19 21:00:00","percent_done":"10","location":{"lat":41.56439632936381,"lng":-97.65335133546031}},{"name":"Price","id":1376,"start":"2014/07/19 21:00:00","percent_done":"10","location":{"lat":40.776075126510115,"lng":-98.89108559340238}},{"name":"Durgan","id":8605,"start":"2014/07/19 21:00:00","percent_done":"10","location":{"lat":40.419003807147966,"lng":-91.30370498066767}},{"name":"Kunze","id":7125,"start":"2014/07/19 21:00:00","percent_done":"10","location":{"lat":41.17435269840062,"lng":-91.2956765493378}},{"name":"O'Connell","id":3625,"start":"2014/07/19 21:00:00","percent_done":"10","location":{"lat":40.82980353375897,"lng":-92.92858485612086}},{"name":"Kozey","id":292,"start":"2014/07/19 21:00:00","percent_done":"10","location":{"lat":41.296241524768995,"lng":-95.4222056387458}},{"name":"Hettinger","id":5156,"start":"2014/07/19 21:00:00","percent_done":"10","location":{"lat":40.11551164756529,"lng":-88.5694549778942}},{"name":"Rau","id":2361,"start":"2014/07/19 21:00:00","percent_done":"10","location":{"lat":40.91344927381724,"lng":-93.28448919570073}},{"name":"Skiles","id":1062,"start":"2014/07/19 21:00:00","percent_done":"10","location":{"lat":39.339371170289816,"lng":-92.84507761700078}},{"name":"Feeney","id":7069,"start":"2014/07/19 21:00:00","percent_done":"10","location":{"lat":40.730735149839894,"lng":-93.24225049084052}},{"name":"Ryan","id":4808,"start":"2014/07/19 21:00:00","percent_done":"10","location":{"lat":40.799689246481286,"lng":-98.4849262217991}},{"name":"Bogan","id":5530,"start":"2014/07/19 21:00:00","percent_done":"10","location":{"lat":39.536936512356625,"lng":-89.43174582314677}},{"name":"Champlin","id":6071,"start":"2014/07/19 21:00:00","percent_done":"10","location":{"lat":39.60925252889283,"lng":-98.48193365349434}},{"name":"McCullough","id":56,"start":"2014/07/19 21:00:00","percent_done":"10","location":{"lat":41.481316841347144,"lng":-92.16441720528528}},{"name":"Schaden","id":2161,"start":"2014/07/19 21:00:00","percent_done":"10","location":{"lat":41.37774793980643,"lng":-88.67751590502448}},{"name":"Heidenreich","id":6436,"start":"2014/07/19 21:00:00","percent_done":"10","location":{"lat":41.17125802850351,"lng":-94.28374701356515}},{"name":"Borer","id":886,"start":"2014/07/19 21:00:00","percent_done":"10","location":{"lat":39.77409365810454,"lng":-97.18360177837312}},{"name":"Lueilwitz","id":978,"start":"2014/07/19 21:00:00","percent_done":"10","location":{"lat":40.00230857185088,"lng":-90.42849533623084}},{"name":"Flatley","id":5209,"start":"2014/07/19 21:00:00","percent_done":"10","location":{"lat":40.94261505864561,"lng":-94.69398233541287}},{"name":"Kohler","id":2310,"start":"2014/07/19 21:00:00","percent_done":"10","location":{"lat":41.57852920088917,"lng":-94.95954793379642}},{"name":"Homenick","id":7484,"start":"2014/07/19 21:00:00","percent_done":"10","location":{"lat":41.01373622370884,"lng":-96.60001204642467}},{"name":"Walsh","id":2007,"start":"2014/07/19 21:00:00","percent_done":"10","location":{"lat":39.101948698889466,"lng":-95.2535231040325}},{"name":"Gusikowski","id":3471,"start":"2014/07/19 21:00:00","percent_done":"10","location":{"lat":39.8194868423976,"lng":-98.58353131278417}},{"name":"Green","id":9230,"start":"2014/07/19 21:00:00","percent_done":"10","location":{"lat":41.303079164261,"lng":-93.057296511624}},{"name":"Little","id":5084,"start":"2014/07/19 21:00:00","percent_done":"10","location":{"lat":40.96301846965216,"lng":-90.20762850940227}},{"name":"White","id":4444,"start":"2014/07/19 21:00:00","percent_done":"10","location":{"lat":39.28669647094794,"lng":-92.31067625214345}},{"name":"Rutherford","id":2081,"start":"2014/07/19 21:00:00","percent_done":"10","location":{"lat":39.173111111298205,"lng":-91.83045599157921}},{"name":"D'Amore","id":3739,"start":"2014/07/19 21:00:00","percent_done":"10","location":{"lat":40.020501376036556,"lng":-97.72037347443401}},{"name":"Adams","id":1623,"start":"2014/07/19 21:00:00","percent_done":"10","location":{"lat":40.326817707531156,"lng":-96.41963096326216}},{"name":"Rosenbaum","id":2474,"start":"2014/07/19 21:00:00","percent_done":"10","location":{"lat":42.07526472923346,"lng":-95.09118346138857}},{"name":"Sanford","id":8263,"start":"2014/07/19 21:00:00","percent_done":"10","location":{"lat":41.08118831054308,"lng":-93.98675613515078}},{"name":"Mann","id":1735,"start":"2014/07/19 21:00:00","percent_done":"10","location":{"lat":40.464453381393106,"lng":-88.05686991605907}},{"name":"Senger","id":750,"start":"2014/07/19 21:00:00","percent_done":"10","location":{"lat":39.720502734323965,"lng":-94.53744615186005}},{"name":"Swaniawski","id":6888,"start":"2014/07/19 21:00:00","percent_done":"10","location":{"lat":40.04785704975948,"lng":-99.96948465416207}},{"name":"Klein","id":3412,"start":"2014/07/19 21:00:00","percent_done":"10","location":{"lat":41.488302471023054,"lng":-91.6798877342604}},{"name":"Daugherty","id":2487,"start":"2014/07/19 21:00:00","percent_done":"10","location":{"lat":41.24494634838775,"lng":-88.91744920066557}},{"name":"Kuvalis","id":2196,"start":"2014/07/19 21:00:00","percent_done":"10","location":{"lat":41.94845643746667,"lng":-88.73170263008214}},{"name":"Romaguera","id":3818,"start":"2014/07/19 21:00:00","percent_done":"10","location":{"lat":39.63632092126645,"lng":-88.52618133802898}},{"name":"Torphy","id":3085,"start":"2014/07/19 21:00:00","percent_done":"10","location":{"lat":40.99212646824308,"lng":-93.79873306108638}},{"name":"O'Conner","id":2424,"start":"2014/07/19 21:00:00","percent_done":"10","location":{"lat":40.13224382479675,"lng":-93.97361576524563}},{"name":"Nader","id":8131,"start":"2014/07/19 21:00:00","percent_done":"10","location":{"lat":40.62203860925511,"lng":-99.09611523351631}},{"name":"Becker","id":7229,"start":"2014/07/19 21:00:00","percent_done":"10","location":{"lat":40.231308716954665,"lng":-97.86937268790788}},{"name":"Streich","id":6701,"start":"2014/07/19 21:00:00","percent_done":"10","location":{"lat":41.15490476288833,"lng":-96.73440421852283}},{"name":"Carter","id":1347,"start":"2014/07/19 21:00:00","percent_done":"10","location":{"lat":40.289740421716125,"lng":-93.45982708493247}},{"name":"Bahringer","id":1845,"start":"2014/07/19 21:00:00","percent_done":"10","location":{"lat":39.197156072268264,"lng":-95.49772020815871}},{"name":"Cummings","id":2587,"start":"2014/07/19 21:00:00","percent_done":"10","location":{"lat":40.56580629562959,"lng":-94.28662040471099}},{"name":"Dach","id":8844,"start":"2014/07/19 21:00:00","percent_done":"10","location":{"lat":40.274978055991234,"lng":-88.1468111236114}},{"name":"Turner","id":6636,"start":"2014/07/19 21:00:00","percent_done":"10","location":{"lat":41.22365042464808,"lng":-91.30706742978654}},{"name":"Gleason","id":3623,"start":"2014/07/19 21:00:00","percent_done":"10","location":{"lat":39.47318660807796,"lng":-99.23825828558765}},{"name":"Cummings","id":1859,"start":"2014/07/19 21:00:00","percent_done":"10","location":{"lat":41.064545119088145,"lng":-98.27059267871081}},{"name":"Conroy","id":3285,"start":"2014/07/19 21:00:00","percent_done":"10","location":{"lat":39.82033091681078,"lng":-91.19794789506122}},{"name":"Kris","id":9422,"start":"2014/07/19 21:00:00","percent_done":"10","location":{"lat":42.071083976328374,"lng":-91.26221907990984}},{"name":"Schuppe","id":7943,"start":"2014/07/19 21:00:00","percent_done":"10","location":{"lat":39.59934027949348,"lng":-97.44252287633716}},{"name":"Senger","id":8042,"start":"2014/07/19 21:00:00","percent_done":"10","location":{"lat":40.86363624422811,"lng":-99.12823524549603}},{"name":"Treutel","id":558,"start":"2014/07/19 21:00:00","percent_done":"10","location":{"lat":42.03701275950298,"lng":-87.70189857799559}},{"name":"West","id":1379,"start":"2014/07/19 21:00:00","percent_done":"10","location":{"lat":40.54847979396582,"lng":-95.3647672665771}},{"name":"Jenkins","id":7262,"start":"2014/07/19 21:00:00","percent_done":"10","location":{"lat":41.69073636122048,"lng":-97.38832505503669}},{"name":"Cole","id":4384,"start":"2014/07/19 21:00:00","percent_done":"10","location":{"lat":41.052731978381054,"lng":-96.38554242150857}},{"name":"Hermann","id":5558,"start":"2014/07/19 21:00:00","percent_done":"10","location":{"lat":42.002019870700316,"lng":-94.98696430111303}},{"name":"Lowe","id":7599,"start":"2014/07/19 21:00:00","percent_done":"10","location":{"lat":40.89513771273196,"lng":-91.0172181005124}},{"name":"Stark","id":8444,"start":"2014/07/19 21:00:00","percent_done":"10","location":{"lat":42.01629723994993,"lng":-94.1300780525431}},{"name":"Flatley","id":2382,"start":"2014/07/19 21:00:00","percent_done":"10","location":{"lat":41.38828560351394,"lng":-96.78481293926015}},{"name":"Romaguera","id":3104,"start":"2014/07/19 21:00:00","percent_done":"10","location":{"lat":39.94878302901052,"lng":-91.91314008077606}},{"name":"Guªann","id":8502,"start":"2014/07/19 21:00:00","percent_done":"10","location":{"lat":39.18222646312788,"lng":-87.47477820110507}},{"name":"Ryan","id":6653,"start":"2014/07/19 21:00:00","percent_done":"10","location":{"lat":40.12734556421638,"lng":-93.13177278931252}},{"name":"Heathcote","id":3146,"start":"2014/07/19 21:00:00","percent_done":"10","location":{"lat":41.00951743372716,"lng":-95.92935588737018}},{"name":"Kautzer","id":5896,"start":"2014/07/19 21:00:00","percent_done":"10","location":{"lat":39.31191273443401,"lng":-97.11417315006256}},{"name":"Doyle","id":7653,"start":"2014/07/19 21:00:00","percent_done":"10","location":{"lat":39.57864160896279,"lng":-91.2184433789458}},{"name":"Simonis","id":9991,"start":"2014/07/19 21:00:00","percent_done":"10","location":{"lat":39.19177961293608,"lng":-96.1101590969134}},{"name":"Little","id":1560,"start":"2014/07/19 21:00:00","percent_done":"10","location":{"lat":39.480500037921594,"lng":-93.44341642283834}},{"name":"Cremin","id":7717,"start":"2014/07/19 21:00:00","percent_done":"10","location":{"lat":41.80940509159118,"lng":-91.08308076686225}},{"name":"Legros","id":1593,"start":"2014/07/19 21:00:00","percent_done":"10","location":{"lat":41.051821967726575,"lng":-93.31673420234583}},{"name":"Ratke","id":3937,"start":"2014/07/19 21:00:00","percent_done":"10","location":{"lat":40.21328937066719,"lng":-97.63424890828318}},{"name":"Metz","id":336,"start":"2014/07/19 21:00:00","percent_done":"10","location":{"lat":40.41875829771161,"lng":-94.37076636487618}},{"name":"Schinner","id":7936,"start":"2014/07/19 21:00:00","percent_done":"10","location":{"lat":41.70153122013435,"lng":-98.68868491533212}},{"name":"D'Amore","id":3816,"start":"2014/07/19 21:00:00","percent_done":"10","location":{"lat":41.60218337867409,"lng":-90.23151368661783}},{"name":"Murphy","id":1720,"start":"2014/07/19 21:00:00","percent_done":"10","location":{"lat":40.452936343988405,"lng":-95.81256110630929}},{"name":"Bode","id":2938,"start":"2014/07/19 21:00:00","percent_done":"10","location":{"lat":41.02390120984055,"lng":-92.7313926775474}},{"name":"Witting","id":1604,"start":"2014/07/19 21:00:00","percent_done":"10","location":{"lat":39.41094976165332,"lng":-89.55707268873229}},{"name":"Koss","id":9959,"start":"2014/07/19 21:00:00","percent_done":"10","location":{"lat":40.860980393504725,"lng":-96.68341620489954}},{"name":"Stehr","id":7303,"start":"2014/07/19 21:00:00","percent_done":"10","location":{"lat":40.81565774921328,"lng":-87.69545853780582}},{"name":"Bins","id":4584,"start":"2014/07/19 21:00:00","percent_done":"10","location":{"lat":40.94473930113018,"lng":-99.76749787866137}},{"name":"Walter","id":4087,"start":"2014/07/19 21:00:00","percent_done":"10","location":{"lat":40.50734485536814,"lng":-88.63825899912044}},{"name":"Marquardt","id":2936,"start":"2014/07/19 21:00:00","percent_done":"10","location":{"lat":41.09738203501329,"lng":-89.10902011222205}},{"name":"Gorczany","id":9313,"start":"2014/07/19 21:00:00","percent_done":"10","location":{"lat":41.86867994735949,"lng":-99.91033175205811}},{"name":"Funk","id":1069,"start":"2014/07/19 21:00:00","percent_done":"10","location":{"lat":40.63277553385124,"lng":-93.06150596486404}},{"name":"Dare","id":6078,"start":"2014/07/19 21:00:00","percent_done":"10","location":{"lat":40.24648934383877,"lng":-99.41832792935892}},{"name":"Tromp","id":6682,"start":"2014/07/19 21:00:00","percent_done":"10","location":{"lat":40.369624317530544,"lng":-98.88796384437009}},{"name":"Jakubowski","id":6502,"start":"2014/07/19 21:00:00","percent_done":"10","location":{"lat":40.129379253508525,"lng":-96.56424895571544}},{"name":"Stracke","id":6309,"start":"2014/07/19 21:00:00","percent_done":"10","location":{"lat":39.63032792056911,"lng":-97.40403019161894}},{"name":"O'Reilly","id":521,"start":"2014/07/19 21:00:00","percent_done":"10","location":{"lat":41.2521509825252,"lng":-88.00285319415852}},{"name":"Satterfield","id":661,"start":"2014/07/19 21:00:00","percent_done":"10","location":{"lat":41.228426846582444,"lng":-89.11076270360499}},{"name":"Schmeler","id":4671,"start":"2014/07/19 21:00:00","percent_done":"10","location":{"lat":41.830744854779915,"lng":-88.78001824407838}},{"name":"Dietrich","id":134,"start":"2014/07/19 21:00:00","percent_done":"10","location":{"lat":41.05763221778907,"lng":-89.65743310484103}},{"name":"Reynolds","id":9900,"start":"2014/07/19 21:00:00","percent_done":"10","location":{"lat":41.71153624113649,"lng":-92.05669877855107}},{"name":"Jakubowski","id":7211,"start":"2014/07/19 21:00:00","percent_done":"10","location":{"lat":42.07656994103454,"lng":-93.393608445907}},{"name":"Douglas","id":5186,"start":"2014/07/19 21:00:00","percent_done":"10","location":{"lat":42.064161527343096,"lng":-98.67747741951607}},{"name":"Barton","id":255,"start":"2014/07/19 21:00:00","percent_done":"10","location":{"lat":41.6633883359842,"lng":-93.42692013564519}},{"name":"Reinger","id":5787,"start":"2014/07/19 21:00:00","percent_done":"10","location":{"lat":40.85543748214841,"lng":-90.1123411254026}},{"name":"Romaguera","id":9638,"start":"2014/07/19 21:00:00","percent_done":"10","location":{"lat":39.58007102031261,"lng":-93.05425223046913}},{"name":"Turcotte","id":2883,"start":"2014/07/19 21:00:00","percent_done":"10","location":{"lat":39.88858612966724,"lng":-99.37078650379553}},{"name":"Schowalter","id":7753,"start":"2014/07/19 21:00:00","percent_done":"10","location":{"lat":40.646744152205066,"lng":-90.58426427785307}},{"name":"Klocko","id":579,"start":"2014/07/19 21:00:00","percent_done":"10","location":{"lat":39.61203489396721,"lng":-99.63066067094914}},{"name":"Koch","id":3114,"start":"2014/07/19 21:00:00","percent_done":"10","location":{"lat":39.16565327523276,"lng":-97.25126838022842}},{"name":"Kertzmann","id":9097,"start":"2014/07/19 21:00:00","percent_done":"10","location":{"lat":40.88772296383977,"lng":-91.16969600729644}},{"name":"Mante","id":3899,"start":"2014/07/19 21:00:00","percent_done":"10","location":{"lat":41.39310479830019,"lng":-98.21071794270537}},{"name":"Lockman","id":273,"start":"2014/07/19 21:00:00","percent_done":"10","location":{"lat":41.59006943870336,"lng":-94.92950272550806}},{"name":"Heller","id":8156,"start":"2014/07/19 21:00:00","percent_done":"10","location":{"lat":41.103614763030784,"lng":-89.05580891519784}},{"name":"Bergnaum","id":4830,"start":"2014/07/19 21:00:00","percent_done":"10","location":{"lat":41.70244294279255,"lng":-92.96338326986879}},{"name":"Murray","id":6917,"start":"2014/07/19 21:00:00","percent_done":"10","location":{"lat":41.72925747106783,"lng":-88.51830164962448}},{"name":"Gorczany","id":2189,"start":"2014/07/19 21:00:00","percent_done":"10","location":{"lat":40.81685881447047,"lng":-87.27136793746612}},{"name":"Kuvalis","id":4232,"start":"2014/07/19 21:00:00","percent_done":"10","location":{"lat":41.8935134540312,"lng":-87.56755695040337}},{"name":"Williamson","id":2615,"start":"2014/07/19 21:00:00","percent_done":"10","location":{"lat":40.60220236252062,"lng":-88.50327117731794}},{"name":"Gerlach","id":9038,"start":"2014/07/19 21:00:00","percent_done":"10","location":{"lat":40.04271034607664,"lng":-99.00114823007024}},{"name":"Will","id":5570,"start":"2014/07/19 21:00:00","percent_done":"10","location":{"lat":42.03013585009612,"lng":-92.71801770050078}},{"name":"Leannon","id":3322,"start":"2014/07/19 21:00:00","percent_done":"10","location":{"lat":39.89132350557484,"lng":-97.82499872511252}},{"name":"Schinner","id":2377,"start":"2014/07/19 21:00:00","percent_done":"10","location":{"lat":40.410798135586084,"lng":-89.31742498362436}},{"name":"Hane","id":1804,"start":"2014/07/19 21:00:00","percent_done":"10","location":{"lat":41.04909298559651,"lng":-99.62893595281056}},{"name":"Terry","id":7505,"start":"2014/07/19 21:00:00","percent_done":"10","location":{"lat":39.59992873100564,"lng":-91.49939543139189}},{"name":"Steuber","id":9171,"start":"2014/07/19 21:00:00","percent_done":"10","location":{"lat":40.31543834288605,"lng":-91.79008190953172}},{"name":"Cummerata","id":1623,"start":"2014/07/19 21:00:00","percent_done":"10","location":{"lat":39.41340266345069,"lng":-93.92335802423767}},{"name":"Moen","id":7200,"start":"2014/07/19 21:00:00","percent_done":"10","location":{"lat":41.73578407838941,"lng":-93.61137151499278}},{"name":"Hills","id":10,"start":"2014/07/19 21:00:00","percent_done":"10","location":{"lat":41.8724354758393,"lng":-91.14012186266481}},{"name":"Ullrich","id":8140,"start":"2014/07/19 21:00:00","percent_done":"10","location":{"lat":41.9935738815926,"lng":-97.41303721712902}},{"name":"Boehm","id":1382,"start":"2014/07/19 21:00:00","percent_done":"10","location":{"lat":39.392693607043476,"lng":-97.09171420326456}},{"name":"Adams","id":4224,"start":"2014/07/19 21:00:00","percent_done":"10","location":{"lat":39.14370067967102,"lng":-88.91850830768234}},{"name":"Hermann","id":7197,"start":"2014/07/19 21:00:00","percent_done":"10","location":{"lat":40.21478004185483,"lng":-91.14946620669215}},{"name":"Mueller","id":5950,"start":"2014/07/19 21:00:00","percent_done":"10","location":{"lat":39.840070409839974,"lng":-93.50841120621189}},{"name":"O'Reilly","id":6068,"start":"2014/07/19 21:00:00","percent_done":"10","location":{"lat":39.1669809456449,"lng":-89.47018516357056}},{"name":"Koelpin","id":7991,"start":"2014/07/19 21:00:00","percent_done":"10","location":{"lat":40.80809207158163,"lng":-87.86716013136319}},{"name":"Crooks","id":4607,"start":"2014/07/19 21:00:00","percent_done":"10","location":{"lat":39.371121435333045,"lng":-90.39708631010726}},{"name":"Breitenberg","id":1459,"start":"2014/07/19 21:00:00","percent_done":"10","location":{"lat":39.73927128026262,"lng":-91.36226394320838}},{"name":"Jast","id":1009,"start":"2014/07/19 21:00:00","percent_done":"10","location":{"lat":41.956836727121846,"lng":-89.84263980658724}},{"name":"Weber","id":6963,"start":"2014/07/19 21:00:00","percent_done":"10","location":{"lat":40.99809217257425,"lng":-88.13550738468766}},{"name":"Kirlin","id":4891,"start":"2014/07/19 21:00:00","percent_done":"10","location":{"lat":40.19648017422296,"lng":-88.86696815155446}},{"name":"Williamson","id":8388,"start":"2014/07/19 21:00:00","percent_done":"10","location":{"lat":39.656990262819455,"lng":-87.83227615910582}},{"name":"Harber","id":286,"start":"2014/07/19 21:00:00","percent_done":"10","location":{"lat":39.66916649499908,"lng":-100.0691893113777}},{"name":"Tromp","id":3928,"start":"2014/07/19 21:00:00","percent_done":"10","location":{"lat":40.13566782665439,"lng":-93.3716790495906}},{"name":"Abbott","id":1295,"start":"2014/07/19 21:00:00","percent_done":"10","location":{"lat":39.745079384557904,"lng":-95.73516019680537}},{"name":"Kshlerin","id":3536,"start":"2014/07/19 21:00:00","percent_done":"10","location":{"lat":40.07406923212111,"lng":-96.93334431867115}},{"name":"Herzog","id":1582,"start":"2014/07/19 21:00:00","percent_done":"10","location":{"lat":39.774782723886894,"lng":-99.80628101495094}},{"name":"Kiehn","id":3275,"start":"2014/07/19 21:00:00","percent_done":"10","location":{"lat":40.74726304681972,"lng":-91.01218637209385}},{"name":"Toy","id":5987,"start":"2014/07/19 21:00:00","percent_done":"10","location":{"lat":41.00678727254272,"lng":-93.81906535513698}},{"name":"Stokes","id":9170,"start":"2014/07/19 21:00:00","percent_done":"10","location":{"lat":41.581820890214296,"lng":-96.6126902272459}},{"name":"King","id":8232,"start":"2014/07/19 21:00:00","percent_done":"10","location":{"lat":40.74879767689854,"lng":-99.95528279212303}},{"name":"Boyer","id":9998,"start":"2014/07/19 21:00:00","percent_done":"10","location":{"lat":39.80081083616242,"lng":-97.72446459499187}},{"name":"Murray","id":2286,"start":"2014/07/19 21:00:00","percent_done":"10","location":{"lat":40.64612483573146,"lng":-99.82410197439603}},{"name":"Jast","id":3174,"start":"2014/07/19 21:00:00","percent_done":"10","location":{"lat":39.11143030286767,"lng":-99.5548140738625}},{"name":"Zieme","id":8597,"start":"2014/07/19 21:00:00","percent_done":"10","location":{"lat":41.32858387976885,"lng":-97.69744210797361}},{"name":"Hickle","id":9509,"start":"2014/07/19 21:00:00","percent_done":"10","location":{"lat":40.85524311279878,"lng":-98.43161790692247}},{"name":"Terry","id":7519,"start":"2014/07/19 21:00:00","percent_done":"10","location":{"lat":41.55631294278428,"lng":-99.61359838154166}},{"name":"Hoppe","id":8539,"start":"2014/07/19 21:00:00","percent_done":"10","location":{"lat":39.28312186584808,"lng":-87.69266777522861}},{"name":"Haag","id":1998,"start":"2014/07/19 21:00:00","percent_done":"10","location":{"lat":40.44184333099984,"lng":-93.35752780167385}},{"name":"Kessler","id":7706,"start":"2014/07/19 21:00:00","percent_done":"10","location":{"lat":40.00737181832083,"lng":-90.39744466487318}},{"name":"Hintz","id":6192,"start":"2014/07/19 21:00:00","percent_done":"10","location":{"lat":41.81141668409109,"lng":-96.73611806137487}},{"name":"Mraz","id":2395,"start":"2014/07/19 21:00:00","percent_done":"10","location":{"lat":41.08595400503837,"lng":-89.11074629835784}},{"name":"Kerluke","id":2626,"start":"2014/07/19 21:00:00","percent_done":"10","location":{"lat":40.10965240946971,"lng":-98.34620156618766}},{"name":"Nader","id":923,"start":"2014/07/19 21:00:00","percent_done":"10","location":{"lat":40.40192880728282,"lng":-91.22096385750919}},{"name":"White","id":8414,"start":"2014/07/19 21:00:00","percent_done":"10","location":{"lat":40.149030348891394,"lng":-88.31950950846075}},{"name":"Leuschke","id":7805,"start":"2014/07/19 21:00:00","percent_done":"10","location":{"lat":41.076481331977995,"lng":-95.66264633778482}},{"name":"Runolfsson","id":1231,"start":"2014/07/19 21:00:00","percent_done":"10","location":{"lat":41.184818849805744,"lng":-98.40569959594868}},{"name":"Bartoletti","id":4726,"start":"2014/07/19 21:00:00","percent_done":"10","location":{"lat":40.36594676310197,"lng":-88.76498602833598}},{"name":"Adams","id":6138,"start":"2014/07/19 21:00:00","percent_done":"10","location":{"lat":40.72036330252886,"lng":-89.09506105086766}},{"name":"Effertz","id":5041,"start":"2014/07/19 21:00:00","percent_done":"10","location":{"lat":39.1517587934155,"lng":-87.13106082021258}},{"name":"Keebler","id":7713,"start":"2014/07/19 21:00:00","percent_done":"10","location":{"lat":41.29345110608265,"lng":-96.50516914171166}},{"name":"Lakin","id":8633,"start":"2014/07/19 21:00:00","percent_done":"10","location":{"lat":39.13720571892336,"lng":-92.7762714558281}},{"name":"Koch","id":1780,"start":"2014/07/19 21:00:00","percent_done":"10","location":{"lat":39.46303769424558,"lng":-96.2593611179851}},{"name":"Leffler","id":8141,"start":"2014/07/19 21:00:00","percent_done":"10","location":{"lat":39.722376698069276,"lng":-88.92267019478604}},{"name":"Willms","id":3580,"start":"2014/07/19 21:00:00","percent_done":"10","location":{"lat":39.14948507016525,"lng":-92.210956430668}},{"name":"Torp","id":5021,"start":"2014/07/19 21:00:00","percent_done":"10","location":{"lat":40.364182082610206,"lng":-98.07157534072175}},{"name":"Kuhic","id":1768,"start":"2014/07/19 21:00:00","percent_done":"10","location":{"lat":41.49469371549785,"lng":-90.95124160232953}},{"name":"Ernser","id":340,"start":"2014/07/19 21:00:00","percent_done":"10","location":{"lat":40.29067201158032,"lng":-88.80917360694147}},{"name":"Mraz","id":6995,"start":"2014/07/19 21:00:00","percent_done":"10","location":{"lat":40.02086493340321,"lng":-92.52261529807001}},{"name":"Skiles","id":1327,"start":"2014/07/19 21:00:00","percent_done":"10","location":{"lat":40.564236152125524,"lng":-94.24652530569583}},{"name":"Jacobson","id":1939,"start":"2014/07/19 21:00:00","percent_done":"10","location":{"lat":39.69187976573594,"lng":-94.2426185958553}},{"name":"Balistreri","id":9661,"start":"2014/07/19 21:00:00","percent_done":"10","location":{"lat":41.23202708773315,"lng":-92.72455274281091}},{"name":"O'Conner","id":1923,"start":"2014/07/19 21:00:00","percent_done":"10","location":{"lat":40.94959208010696,"lng":-91.209414357692}},{"name":"Rosenbaum","id":524,"start":"2014/07/19 21:00:00","percent_done":"10","location":{"lat":41.80474038156681,"lng":-96.34778636568225}},{"name":"Bradtke","id":3125,"start":"2014/07/19 21:00:00","percent_done":"10","location":{"lat":41.6725555382669,"lng":-97.15981374322436}},{"name":"Kshlerin","id":7380,"start":"2014/07/19 21:00:00","percent_done":"10","location":{"lat":41.87879926539026,"lng":-100.02137242294847}},{"name":"Hansen","id":4046,"start":"2014/07/19 21:00:00","percent_done":"10","location":{"lat":41.803927704365925,"lng":-91.94308833163231}},{"name":"Kertzmann","id":1338,"start":"2014/07/19 21:00:00","percent_done":"10","location":{"lat":40.18705410733819,"lng":-87.63909167344681}},{"name":"Franecki","id":8883,"start":"2014/07/19 21:00:00","percent_done":"10","location":{"lat":40.36648132875562,"lng":-94.76812535957433}},{"name":"Pouros","id":1682,"start":"2014/07/19 21:00:00","percent_done":"10","location":{"lat":40.82441006754525,"lng":-89.88388321236707}},{"name":"Yundt","id":9721,"start":"2014/07/19 21:00:00","percent_done":"10","location":{"lat":40.980232185823844,"lng":-87.96721142660826}},{"name":"Graham","id":9196,"start":"2014/07/19 21:00:00","percent_done":"10","location":{"lat":39.43949479251169,"lng":-98.47109141354449}},{"name":"O'Conner","id":9697,"start":"2014/07/19 21:00:00","percent_done":"10","location":{"lat":41.16108755711466,"lng":-88.62472902578301}},{"name":"Bahringer","id":3434,"start":"2014/07/19 21:00:00","percent_done":"10","location":{"lat":39.13451727726497,"lng":-90.47096575158648}},{"name":"Witting","id":5193,"start":"2014/07/19 21:00:00","percent_done":"10","location":{"lat":41.42096613897011,"lng":-87.65856560682877}},{"name":"Pfannerstill","id":974,"start":"2014/07/19 21:00:00","percent_done":"10","location":{"lat":41.24494303194806,"lng":-91.08726338753476}},{"name":"Ferry","id":7673,"start":"2014/07/19 21:00:00","percent_done":"10","location":{"lat":41.95002472368069,"lng":-87.89518352006561}},{"name":"Bailey","id":5587,"start":"2014/07/19 21:00:00","percent_done":"10","location":{"lat":39.69933695779182,"lng":-95.95618458362296}},{"name":"Wiegand","id":9512,"start":"2014/07/19 21:00:00","percent_done":"10","location":{"lat":41.6083317917306,"lng":-97.00695016481913}},{"name":"Bogan","id":4357,"start":"2014/07/19 21:00:00","percent_done":"10","location":{"lat":40.376481203269215,"lng":-94.84564014328643}},{"name":"Nolan","id":2098,"start":"2014/07/19 21:00:00","percent_done":"10","location":{"lat":39.613693699846046,"lng":-91.29523091078735}},{"name":"Kutch","id":7235,"start":"2014/07/19 21:00:00","percent_done":"10","location":{"lat":41.1302916332148,"lng":-91.39666295275092}},{"name":"Volkman","id":4595,"start":"2014/07/19 21:00:00","percent_done":"10","location":{"lat":40.69211109834723,"lng":-95.3396117602475}},{"name":"Daugherty","id":7428,"start":"2014/07/19 21:00:00","percent_done":"10","location":{"lat":40.27595320520923,"lng":-99.65858046747744}},{"name":"Connelly","id":5291,"start":"2014/07/19 21:00:00","percent_done":"10","location":{"lat":39.695339414430784,"lng":-92.49876626688055}},{"name":"Mayert","id":5062,"start":"2014/07/19 21:00:00","percent_done":"10","location":{"lat":40.32792379674502,"lng":-98.19015242173336}},{"name":"Erdman","id":1460,"start":"2014/07/19 21:00:00","percent_done":"10","location":{"lat":41.78140249559656,"lng":-97.11709026028402}},{"name":"Donnelly","id":2866,"start":"2014/07/19 21:00:00","percent_done":"10","location":{"lat":39.51566965705715,"lng":-87.53887120741419}},{"name":"O'Kon","id":2839,"start":"2014/07/19 21:00:00","percent_done":"10","location":{"lat":41.70822775447741,"lng":-87.6116469238419}},{"name":"Spencer","id":9835,"start":"2014/07/19 21:00:00","percent_done":"10","location":{"lat":40.65493054469116,"lng":-93.78674575607292}},{"name":"Lind","id":2360,"start":"2014/07/19 21:00:00","percent_done":"10","location":{"lat":40.35007256935351,"lng":-95.66447823485359}},{"name":"Zulauf","id":8598,"start":"2014/07/19 21:00:00","percent_done":"10","location":{"lat":39.64936718312092,"lng":-92.67612680201418}},{"name":"Harber","id":5910,"start":"2014/07/19 21:00:00","percent_done":"10","location":{"lat":41.674615417514,"lng":-95.90651967134326}},{"name":"Block","id":6893,"start":"2014/07/19 21:00:00","percent_done":"10","location":{"lat":39.35970612629317,"lng":-99.89252816643565}},{"name":"Mueller","id":6887,"start":"2014/07/19 21:00:00","percent_done":"10","location":{"lat":40.40294386134483,"lng":-87.877181845624}},{"name":"Doyle","id":1410,"start":"2014/07/19 21:00:00","percent_done":"10","location":{"lat":40.26830467316322,"lng":-88.33797958903014}},{"name":"Pollich","id":6061,"start":"2014/07/19 21:00:00","percent_done":"10","location":{"lat":39.21950657423586,"lng":-90.63506649145856}},{"name":"Koss","id":9655,"start":"2014/07/19 21:00:00","percent_done":"10","location":{"lat":39.400738204969095,"lng":-97.41472104624845}},{"name":"Stracke","id":3677,"start":"2014/07/19 21:00:00","percent_done":"10","location":{"lat":40.40970484134741,"lng":-89.26457939660176}},{"name":"Cronin","id":2409,"start":"2014/07/19 21:00:00","percent_done":"10","location":{"lat":40.2107384627685,"lng":-93.62746678469702}},{"name":"Cruickshank","id":6114,"start":"2014/07/19 21:00:00","percent_done":"10","location":{"lat":39.85125859724358,"lng":-95.59119238485582}},{"name":"Zieme","id":8685,"start":"2014/07/19 21:00:00","percent_done":"10","location":{"lat":41.39087594756857,"lng":-98.89707427439279}},{"name":"Carroll","id":4540,"start":"2014/07/19 21:00:00","percent_done":"10","location":{"lat":40.07772794542834,"lng":-94.61689613424241}},{"name":"Zemlak","id":6805,"start":"2014/07/19 21:00:00","percent_done":"10","location":{"lat":39.2983079451602,"lng":-98.09218375445343}},{"name":"Welch","id":2772,"start":"2014/07/19 21:00:00","percent_done":"10","location":{"lat":39.8999890090432,"lng":-87.94560883371159}},{"name":"Reilly","id":1202,"start":"2014/07/19 21:00:00","percent_done":"10","location":{"lat":42.05645173196681,"lng":-91.71911308881826}},{"name":"Osinski","id":1274,"start":"2014/07/19 21:00:00","percent_done":"10","location":{"lat":41.7354446252808,"lng":-97.84093421618454}},{"name":"Bergnaum","id":5264,"start":"2014/07/19 21:00:00","percent_done":"10","location":{"lat":41.29490697211586,"lng":-89.76429607057943}},{"name":"Klocko","id":6760,"start":"2014/07/19 21:00:00","percent_done":"10","location":{"lat":41.720229720603676,"lng":-98.76895882552489}},{"name":"Konopelski","id":3299,"start":"2014/07/19 21:00:00","percent_done":"10","location":{"lat":40.51324437898584,"lng":-97.31554763754829}},{"name":"Wiza","id":7606,"start":"2014/07/19 21:00:00","percent_done":"10","location":{"lat":40.58897036467679,"lng":-95.3967005977407}},{"name":"Rohan","id":1193,"start":"2014/07/19 21:00:00","percent_done":"10","location":{"lat":40.65271812877618,"lng":-91.41901264726184}},{"name":"Schuppe","id":6179,"start":"2014/07/19 21:00:00","percent_done":"10","location":{"lat":41.61992082828656,"lng":-88.03813193053938}},{"name":"Cummerata","id":148,"start":"2014/07/19 21:00:00","percent_done":"10","location":{"lat":39.36074265409261,"lng":-89.81605548798106}},{"name":"Gibson","id":4202,"start":"2014/07/19 21:00:00","percent_done":"10","location":{"lat":40.08719782801345,"lng":-95.34084531376138}},{"name":"Watsica","id":8998,"start":"2014/07/19 21:00:00","percent_done":"10","location":{"lat":40.80454309904017,"lng":-95.12958423737436}},{"name":"Casper","id":7392,"start":"2014/07/19 21:00:00","percent_done":"10","location":{"lat":40.613619645498694,"lng":-93.97538104248233}},{"name":"Hane","id":6529,"start":"2014/07/19 21:00:00","percent_done":"10","location":{"lat":39.445887570176275,"lng":-88.90236607417464}},{"name":"Rempel","id":2382,"start":"2014/07/19 21:00:00","percent_done":"10","location":{"lat":40.61234263600782,"lng":-93.76126371268182}},{"name":"Gleason","id":367,"start":"2014/07/19 21:00:00","percent_done":"10","location":{"lat":40.54672355614603,"lng":-99.35343282753601}},{"name":"Sporer","id":9736,"start":"2014/07/19 21:00:00","percent_done":"10","location":{"lat":41.34383038841188,"lng":-94.91904499791562}},{"name":"Kreiger","id":7940,"start":"2014/07/19 21:00:00","percent_done":"10","location":{"lat":39.186629000492395,"lng":-93.3054189313203}},{"name":"Mayer","id":274,"start":"2014/07/19 21:00:00","percent_done":"10","location":{"lat":39.37649070788175,"lng":-92.38703661495819}},{"name":"Greenfelder","id":4607,"start":"2014/07/19 21:00:00","percent_done":"10","location":{"lat":41.64394004493952,"lng":-91.5353726923}},{"name":"Cruickshank","id":9044,"start":"2014/07/19 21:00:00","percent_done":"10","location":{"lat":40.21085725668818,"lng":-87.24946225006133}},{"name":"Beer","id":6330,"start":"2014/07/19 21:00:00","percent_done":"10","location":{"lat":40.53414151482284,"lng":-89.09384053680114}},{"name":"Leannon","id":585,"start":"2014/07/19 21:00:00","percent_done":"10","location":{"lat":40.40531587009318,"lng":-92.98391769351437}},{"name":"Walter","id":3566,"start":"2014/07/19 21:00:00","percent_done":"10","location":{"lat":40.64751845006831,"lng":-95.0618063098751}},{"name":"Larkin","id":2070,"start":"2014/07/19 21:00:00","percent_done":"10","location":{"lat":41.94288725163788,"lng":-90.2831964533776}},{"name":"Cole","id":3772,"start":"2014/07/19 21:00:00","percent_done":"10","location":{"lat":39.756158493366094,"lng":-94.34355848645791}},{"name":"Pacocha","id":4820,"start":"2014/07/19 21:00:00","percent_done":"10","location":{"lat":39.541340680001305,"lng":-88.86527663436718}},{"name":"Howell","id":2275,"start":"2014/07/19 21:00:00","percent_done":"10","location":{"lat":41.67962593343109,"lng":-91.21311136488802}},{"name":"Mann","id":4222,"start":"2014/07/19 21:00:00","percent_done":"10","location":{"lat":40.66441413029097,"lng":-92.91183603405952}},{"name":"Witting","id":837,"start":"2014/07/19 21:00:00","percent_done":"10","location":{"lat":41.37663507801481,"lng":-90.3923173350282}},{"name":"Bruen","id":9918,"start":"2014/07/19 21:00:00","percent_done":"10","location":{"lat":41.80502848504111,"lng":-90.97060384987853}},{"name":"Mayer","id":7196,"start":"2014/07/19 21:00:00","percent_done":"10","location":{"lat":42.080571787105875,"lng":-99.77049263836815}},{"name":"Maggio","id":5410,"start":"2014/07/19 21:00:00","percent_done":"10","location":{"lat":39.26213384224102,"lng":-93.16007106276228}},{"name":"Collins","id":9735,"start":"2014/07/19 21:00:00","percent_done":"10","location":{"lat":39.294832918467,"lng":-87.61484491792507}},{"name":"Stroman","id":3035,"start":"2014/07/19 21:00:00","percent_done":"10","location":{"lat":40.58734281980433,"lng":-98.68724941383115}},{"name":"Dibbert","id":2427,"start":"2014/07/19 21:00:00","percent_done":"10","location":{"lat":39.10031135976315,"lng":-94.91587393325753}},{"name":"Mayert","id":2122,"start":"2014/07/19 21:00:00","percent_done":"10","location":{"lat":39.230001643206926,"lng":-93.60888712494634}},{"name":"Johns","id":6367,"start":"2014/07/19 21:00:00","percent_done":"10","location":{"lat":40.236347417719664,"lng":-95.993602240365}},{"name":"Runolfsson","id":123,"start":"2014/07/19 21:00:00","percent_done":"10","location":{"lat":39.846432673186065,"lng":-87.32452952829189}},{"name":"O'Hara","id":4095,"start":"2014/07/19 21:00:00","percent_done":"10","location":{"lat":40.655564583279194,"lng":-90.45225466825067}},{"name":"Mueller","id":8480,"start":"2014/07/19 21:00:00","percent_done":"10","location":{"lat":39.90587339703925,"lng":-95.35275975768454}},{"name":"Walsh","id":6434,"start":"2014/07/19 21:00:00","percent_done":"10","location":{"lat":41.31589070768096,"lng":-92.96204231949523}},{"name":"Douglas","id":7506,"start":"2014/07/19 21:00:00","percent_done":"10","location":{"lat":40.008436675556005,"lng":-87.53782401992939}},{"name":"Kovacek","id":7679,"start":"2014/07/19 21:00:00","percent_done":"10","location":{"lat":40.304087594058366,"lng":-87.50913640335202}},{"name":"Johns","id":1170,"start":"2014/07/19 21:00:00","percent_done":"10","location":{"lat":42.02410382744856,"lng":-97.28686538445763}},{"name":"Kozey","id":7067,"start":"2014/07/19 21:00:00","percent_done":"10","location":{"lat":40.31447632322088,"lng":-94.72165684625506}},{"name":"Moen","id":430,"start":"2014/07/19 21:00:00","percent_done":"10","location":{"lat":39.339760879194365,"lng":-94.70766947525553}},{"name":"Hegmann","id":1532,"start":"2014/07/19 21:00:00","percent_done":"10","location":{"lat":41.264761813590304,"lng":-92.63326239739544}},{"name":"Hand","id":9908,"start":"2014/07/19 21:00:00","percent_done":"10","location":{"lat":41.61113847270608,"lng":-96.35172668206505}},{"name":"Hagenes","id":3303,"start":"2014/07/19 21:00:00","percent_done":"10","location":{"lat":40.291860179184006,"lng":-99.46831650929525}},{"name":"Barrows","id":1403,"start":"2014/07/19 21:00:00","percent_done":"10","location":{"lat":39.80644553564489,"lng":-98.13468721639364}},{"name":"King","id":4538,"start":"2014/07/19 21:00:00","percent_done":"10","location":{"lat":41.69098943741992,"lng":-93.96171356472186}},{"name":"Kuhlman","id":5640,"start":"2014/07/19 21:00:00","percent_done":"10","location":{"lat":41.927215507393704,"lng":-97.20815834184177}},{"name":"Rutherford","id":2408,"start":"2014/07/19 21:00:00","percent_done":"10","location":{"lat":39.89520220332779,"lng":-88.74995788666419}},{"name":"Hermann","id":4855,"start":"2014/07/19 21:00:00","percent_done":"10","location":{"lat":41.96275396938436,"lng":-95.35516991852782}},{"name":"Schroeder","id":9525,"start":"2014/07/19 21:00:00","percent_done":"10","location":{"lat":41.501832250645386,"lng":-88.12335140830837}},{"name":"Carroll","id":300,"start":"2014/07/19 21:00:00","percent_done":"10","location":{"lat":41.16559471949004,"lng":-90.34694474670104}},{"name":"Blanda","id":3091,"start":"2014/07/19 21:00:00","percent_done":"10","location":{"lat":41.535374123742805,"lng":-94.32858261759392}},{"name":"Walter","id":6567,"start":"2014/07/19 21:00:00","percent_done":"10","location":{"lat":39.90313282413408,"lng":-89.7078686218243}},{"name":"O'Kon","id":3007,"start":"2014/07/19 21:00:00","percent_done":"10","location":{"lat":40.61686905301176,"lng":-91.55276721520349}},{"name":"Bosco","id":3980,"start":"2014/07/19 21:00:00","percent_done":"10","location":{"lat":39.415270541235806,"lng":-96.76606846125796}},{"name":"Kuphal","id":626,"start":"2014/07/19 21:00:00","percent_done":"10","location":{"lat":39.14315135907382,"lng":-92.17937768590636}},{"name":"Batz","id":427,"start":"2014/07/19 21:00:00","percent_done":"10","location":{"lat":39.788967651920395,"lng":-92.04765593088231}},{"name":"Hackett","id":7253,"start":"2014/07/19 21:00:00","percent_done":"10","location":{"lat":41.44225345309824,"lng":-92.36487425202503}},{"name":"Dibbert","id":1391,"start":"2014/07/19 21:00:00","percent_done":"10","location":{"lat":40.75837868885137,"lng":-96.50879951091483}},{"name":"Morissette","id":7193,"start":"2014/07/19 21:00:00","percent_done":"10","location":{"lat":39.75889131790027,"lng":-96.00414503309875}},{"name":"VonRueden","id":8030,"start":"2014/07/19 21:00:00","percent_done":"10","location":{"lat":41.07086246521212,"lng":-99.46764998408034}},{"name":"Harªann","id":5926,"start":"2014/07/19 21:00:00","percent_done":"10","location":{"lat":40.34328299867921,"lng":-98.34432075000367}},{"name":"King","id":2036,"start":"2014/07/19 21:00:00","percent_done":"10","location":{"lat":41.56215825085528,"lng":-92.68286855043843}},{"name":"Beer","id":3260,"start":"2014/07/19 21:00:00","percent_done":"10","location":{"lat":39.522147570410745,"lng":-99.92093485072255}},{"name":"Kessler","id":8387,"start":"2014/07/19 21:00:00","percent_done":"10","location":{"lat":40.969810012169184,"lng":-99.39316702624782}},{"name":"Zulauf","id":9101,"start":"2014/07/19 21:00:00","percent_done":"10","location":{"lat":40.14925581999123,"lng":-93.69223478217609}},{"name":"Purdy","id":2792,"start":"2014/07/19 21:00:00","percent_done":"10","location":{"lat":40.369277343759315,"lng":-95.38703443240374}},{"name":"Stiedemann","id":1270,"start":"2014/07/19 21:00:00","percent_done":"10","location":{"lat":40.86092384220101,"lng":-98.06538279578089}},{"name":"Koss","id":1490,"start":"2014/07/19 21:00:00","percent_done":"10","location":{"lat":40.384763481933625,"lng":-98.9724822399672}},{"name":"Dibbert","id":5115,"start":"2014/07/19 21:00:00","percent_done":"10","location":{"lat":40.582752565527336,"lng":-88.28373540928587}},{"name":"Hudson","id":7172,"start":"2014/07/19 21:00:00","percent_done":"10","location":{"lat":39.18211221150123,"lng":-87.89899310902692}},{"name":"Mraz","id":3506,"start":"2014/07/19 21:00:00","percent_done":"10","location":{"lat":39.85010996568017,"lng":-91.08981959139928}},{"name":"Frami","id":9781,"start":"2014/07/19 21:00:00","percent_done":"10","location":{"lat":40.97407317035832,"lng":-98.09033537344075}},{"name":"Morar","id":4896,"start":"2014/07/19 21:00:00","percent_done":"10","location":{"lat":39.47193167163059,"lng":-87.39533372144214}},{"name":"Crona","id":4417,"start":"2014/07/19 21:00:00","percent_done":"10","location":{"lat":39.86971395756118,"lng":-97.60802960945293}},{"name":"Halvorson","id":7100,"start":"2014/07/19 21:00:00","percent_done":"10","location":{"lat":39.815285831829534,"lng":-96.86306025055237}},{"name":"Prohaska","id":7433,"start":"2014/07/19 21:00:00","percent_done":"10","location":{"lat":39.5722148119472,"lng":-98.24192822924815}},{"name":"Lowe","id":2800,"start":"2014/07/19 21:00:00","percent_done":"10","location":{"lat":39.36427737879567,"lng":-99.59862371734343}},{"name":"Gleichner","id":9479,"start":"2014/07/19 21:00:00","percent_done":"10","location":{"lat":41.06039145370014,"lng":-99.80834146253764}},{"name":"Schimmel","id":7438,"start":"2014/07/19 21:00:00","percent_done":"10","location":{"lat":41.65233527184464,"lng":-91.66338239996693}},{"name":"Johnston","id":2044,"start":"2014/07/19 21:00:00","percent_done":"10","location":{"lat":40.80072771818377,"lng":-92.57083009849302}},{"name":"Romaguera","id":4615,"start":"2014/07/19 21:00:00","percent_done":"10","location":{"lat":40.52730323132128,"lng":-93.17150042895227}},{"name":"Emard","id":4477,"start":"2014/07/19 21:00:00","percent_done":"10","location":{"lat":40.32564503317699,"lng":-91.49336089440621}},{"name":"Gottlieb","id":4921,"start":"2014/07/19 21:00:00","percent_done":"10","location":{"lat":39.973374277027325,"lng":-93.8856804956682}},{"name":"Monahan","id":6723,"start":"2014/07/19 21:00:00","percent_done":"10","location":{"lat":40.42107333885506,"lng":-92.88910222975537}},{"name":"Stokes","id":3447,"start":"2014/07/19 21:00:00","percent_done":"10","location":{"lat":40.75194479376078,"lng":-88.32563053318299}},{"name":"Bradtke","id":1134,"start":"2014/07/19 21:00:00","percent_done":"10","location":{"lat":39.21301422864199,"lng":-92.32827320429496}},{"name":"Padberg","id":796,"start":"2014/07/19 21:00:00","percent_done":"10","location":{"lat":40.6281735106837,"lng":-99.33605370498262}},{"name":"Hessel","id":4489,"start":"2014/07/19 21:00:00","percent_done":"10","location":{"lat":39.692076535103844,"lng":-90.9155020812992}},{"name":"Hermann","id":1190,"start":"2014/07/19 21:00:00","percent_done":"10","location":{"lat":39.71120884795673,"lng":-92.31778746973723}},{"name":"Ernser","id":5004,"start":"2014/07/19 21:00:00","percent_done":"10","location":{"lat":39.125811936007814,"lng":-92.56396784414537}},{"name":"Wilkinson","id":3650,"start":"2014/07/19 21:00:00","percent_done":"10","location":{"lat":41.10397881283425,"lng":-97.98299980945885}},{"name":"Sauer","id":7797,"start":"2014/07/19 21:00:00","percent_done":"10","location":{"lat":40.273552855150776,"lng":-92.40058891698718}},{"name":"Hagenes","id":8247,"start":"2014/07/19 21:00:00","percent_done":"10","location":{"lat":41.47052886816673,"lng":-89.54613609742373}},{"name":"Wuckert","id":4317,"start":"2014/07/19 21:00:00","percent_done":"10","location":{"lat":40.83132419050671,"lng":-87.32547166771255}},{"name":"Conn","id":4545,"start":"2014/07/19 21:00:00","percent_done":"10","location":{"lat":39.23472038367763,"lng":-88.11375535875558}},{"name":"Schmitt","id":5028,"start":"2014/07/19 21:00:00","percent_done":"10","location":{"lat":39.35494068674743,"lng":-94.4022526318673}},{"name":"O'Kon","id":8814,"start":"2014/07/19 21:00:00","percent_done":"10","location":{"lat":40.13364503523335,"lng":-88.03123205006122}},{"name":"Beer","id":5615,"start":"2014/07/19 21:00:00","percent_done":"10","location":{"lat":41.33879949538969,"lng":-87.73912635762244}},{"name":"Osinski","id":1200,"start":"2014/07/19 21:00:00","percent_done":"10","location":{"lat":41.04745825743303,"lng":-98.92062243577092}},{"name":"Dietrich","id":4697,"start":"2014/07/19 21:00:00","percent_done":"10","location":{"lat":39.45439743916504,"lng":-95.80969339646398}},{"name":"Hettinger","id":8401,"start":"2014/07/19 21:00:00","percent_done":"10","location":{"lat":39.72347055808641,"lng":-96.19778879908844}},{"name":"Dibbert","id":3047,"start":"2014/07/19 21:00:00","percent_done":"10","location":{"lat":41.7063306692522,"lng":-90.22957255844958}},{"name":"Glover","id":4149,"start":"2014/07/19 21:00:00","percent_done":"10","location":{"lat":39.44692764142528,"lng":-95.21979712429456}},{"name":"Smitham","id":333,"start":"2014/07/19 21:00:00","percent_done":"10","location":{"lat":41.53715785909444,"lng":-87.16225985917262}},{"name":"Olson","id":2527,"start":"2014/07/19 21:00:00","percent_done":"10","location":{"lat":39.663671896234156,"lng":-93.10370671669952}},{"name":"Yundt","id":6414,"start":"2014/07/19 21:00:00","percent_done":"10","location":{"lat":40.97230045651086,"lng":-89.1311163032893}},{"name":"Weber","id":2763,"start":"2014/07/19 21:00:00","percent_done":"10","location":{"lat":41.54195812614635,"lng":-88.91886892043985}},{"name":"Schaefer","id":4200,"start":"2014/07/19 21:00:00","percent_done":"10","location":{"lat":41.44306510980241,"lng":-98.1595109341666}},{"name":"Lebsack","id":7201,"start":"2014/07/19 21:00:00","percent_done":"10","location":{"lat":40.759211434423925,"lng":-96.73389205094426}},{"name":"Breitenberg","id":8503,"start":"2014/07/19 21:00:00","percent_done":"10","location":{"lat":41.454124056641014,"lng":-95.6180349741131}},{"name":"Raynor","id":6934,"start":"2014/07/19 21:00:00","percent_done":"10","location":{"lat":40.114332294929774,"lng":-98.97184790475293}},{"name":"Kuhic","id":3491,"start":"2014/07/19 21:00:00","percent_done":"10","location":{"lat":39.67257702853531,"lng":-97.36494191167876}},{"name":"Ortiz","id":1652,"start":"2014/07/19 21:00:00","percent_done":"10","location":{"lat":40.81172946342267,"lng":-98.92159785483963}},{"name":"Kunze","id":8329,"start":"2014/07/19 21:00:00","percent_done":"10","location":{"lat":39.69430214134045,"lng":-88.23163439952768}},{"name":"Carroll","id":2629,"start":"2014/07/19 21:00:00","percent_done":"10","location":{"lat":40.317474394477905,"lng":-88.06178933815099}},{"name":"Marquardt","id":2730,"start":"2014/07/19 21:00:00","percent_done":"10","location":{"lat":42.023505333717914,"lng":-87.91861974438652}},{"name":"Connelly","id":5779,"start":"2014/07/19 21:00:00","percent_done":"10","location":{"lat":40.19650076227263,"lng":-95.84519845866598}},{"name":"Mraz","id":6307,"start":"2014/07/19 21:00:00","percent_done":"10","location":{"lat":40.83499721870758,"lng":-99.5865985168144}},{"name":"Price","id":3267,"start":"2014/07/19 21:00:00","percent_done":"10","location":{"lat":39.67356742792763,"lng":-88.74674093574285}},{"name":"Reynolds","id":1073,"start":"2014/07/19 21:00:00","percent_done":"10","location":{"lat":41.78181696115062,"lng":-89.69282539156265}},{"name":"Hauck","id":2954,"start":"2014/07/19 21:00:00","percent_done":"10","location":{"lat":41.09450513883494,"lng":-90.22759538716636}},{"name":"Rutherford","id":8714,"start":"2014/07/19 21:00:00","percent_done":"10","location":{"lat":40.08756356397644,"lng":-97.25493236808106}},{"name":"Lindgren","id":3940,"start":"2014/07/19 21:00:00","percent_done":"10","location":{"lat":40.96457479558885,"lng":-95.1267151563894}},{"name":"Stoltenberg","id":9216,"start":"2014/07/19 21:00:00","percent_done":"10","location":{"lat":40.52580013955012,"lng":-93.44279187326319}},{"name":"Goodwin","id":2651,"start":"2014/07/19 21:00:00","percent_done":"10","location":{"lat":42.018816225370394,"lng":-95.16976042431779}},{"name":"Kuhic","id":5519,"start":"2014/07/19 21:00:00","percent_done":"10","location":{"lat":40.06749745751731,"lng":-92.66190155493095}},{"name":"O'Reilly","id":6666,"start":"2014/07/19 21:00:00","percent_done":"10","location":{"lat":41.50878798416816,"lng":-89.01095273499377}},{"name":"Ziemann","id":2146,"start":"2014/07/19 21:00:00","percent_done":"10","location":{"lat":39.45946351452731,"lng":-92.10182312098331}},{"name":"Hane","id":2642,"start":"2014/07/19 21:00:00","percent_done":"10","location":{"lat":40.501200325228275,"lng":-95.4974397177808}},{"name":"Daniel","id":9543,"start":"2014/07/19 21:00:00","percent_done":"10","location":{"lat":40.5275553484913,"lng":-96.45682795429602}},{"name":"Quigley","id":6127,"start":"2014/07/19 21:00:00","percent_done":"10","location":{"lat":41.707897992944346,"lng":-91.24319080929271}},{"name":"Osinski","id":5675,"start":"2014/07/19 21:00:00","percent_done":"10","location":{"lat":41.702100007003175,"lng":-95.11641853619366}},{"name":"Kling","id":3395,"start":"2014/07/19 21:00:00","percent_done":"10","location":{"lat":41.43287491858937,"lng":-87.99475965336896}},{"name":"Schoen","id":668,"start":"2014/07/19 21:00:00","percent_done":"10","location":{"lat":40.101553950831295,"lng":-90.03075186852365}},{"name":"White","id":6041,"start":"2014/07/19 21:00:00","percent_done":"10","location":{"lat":40.720851607061924,"lng":-97.18186662686057}},{"name":"Kerluke","id":2805,"start":"2014/07/19 21:00:00","percent_done":"10","location":{"lat":39.73657761598006,"lng":-98.99245266816578}},{"name":"Okuneva","id":2861,"start":"2014/07/19 21:00:00","percent_done":"10","location":{"lat":40.27986689461395,"lng":-91.38461977303959}},{"name":"Treutel","id":9753,"start":"2014/07/19 21:00:00","percent_done":"10","location":{"lat":41.93491419814527,"lng":-87.58800797061994}},{"name":"Toy","id":4073,"start":"2014/07/19 21:00:00","percent_done":"10","location":{"lat":39.14886620491743,"lng":-89.70504524246789}},{"name":"King","id":3963,"start":"2014/07/19 21:00:00","percent_done":"10","location":{"lat":41.68349125436507,"lng":-93.67553858100436}},{"name":"Purdy","id":430,"start":"2014/07/19 21:00:00","percent_done":"10","location":{"lat":39.28499586242251,"lng":-96.70968615417368}},{"name":"McClure","id":5972,"start":"2014/07/19 21:00:00","percent_done":"10","location":{"lat":41.16463237782009,"lng":-98.81473054867237}},{"name":"Wisoky","id":7429,"start":"2014/07/19 21:00:00","percent_done":"10","location":{"lat":39.81704853908159,"lng":-96.56504403511062}},{"name":"Oberbrunner","id":6520,"start":"2014/07/19 21:00:00","percent_done":"10","location":{"lat":40.31608862071298,"lng":-87.76256093233823}},{"name":"Frami","id":7591,"start":"2014/07/19 21:00:00","percent_done":"10","location":{"lat":40.46965446616523,"lng":-96.77202337528578}},{"name":"Brakus","id":1610,"start":"2014/07/19 21:00:00","percent_done":"10","location":{"lat":40.18864947827533,"lng":-90.94637009142897}},{"name":"Kreiger","id":8585,"start":"2014/07/19 21:00:00","percent_done":"10","location":{"lat":41.44089813777246,"lng":-94.76280828276649}},{"name":"Bednar","id":3379,"start":"2014/07/19 21:00:00","percent_done":"10","location":{"lat":41.38634036635049,"lng":-95.4706911469344}},{"name":"Bartoletti","id":6402,"start":"2014/07/19 21:00:00","percent_done":"10","location":{"lat":40.71997864581645,"lng":-100.09972473690286}},{"name":"Graham","id":2225,"start":"2014/07/19 21:00:00","percent_done":"10","location":{"lat":41.139665784686805,"lng":-88.9272854478564}},{"name":"Grimes","id":4037,"start":"2014/07/19 21:00:00","percent_done":"10","location":{"lat":41.12627614629455,"lng":-96.26305539803579}},{"name":"Johnston","id":8096,"start":"2014/07/19 21:00:00","percent_done":"10","location":{"lat":41.456733784545214,"lng":-88.32804961400106}},{"name":"Kessler","id":5660,"start":"2014/07/19 21:00:00","percent_done":"10","location":{"lat":40.74516879688017,"lng":-95.04616565923206}},{"name":"Ondricka","id":3497,"start":"2014/07/19 21:00:00","percent_done":"10","location":{"lat":41.66968697300181,"lng":-92.65726288352161}},{"name":"Becker","id":5738,"start":"2014/07/19 21:00:00","percent_done":"10","location":{"lat":40.45849818168208,"lng":-99.29624986569397}},{"name":"Lesch","id":3958,"start":"2014/07/19 21:00:00","percent_done":"10","location":{"lat":40.58947481415235,"lng":-98.5708231515251}},{"name":"O'Kon","id":2120,"start":"2014/07/19 21:00:00","percent_done":"10","location":{"lat":40.91218043668196,"lng":-95.70490292799659}},{"name":"Heidenreich","id":7113,"start":"2014/07/19 21:00:00","percent_done":"10","location":{"lat":40.61520927064121,"lng":-98.30260276342742}},{"name":"Walker","id":3707,"start":"2014/07/19 21:00:00","percent_done":"10","location":{"lat":39.27033805185929,"lng":-92.27129312874749}},{"name":"Maggio","id":987,"start":"2014/07/19 21:00:00","percent_done":"10","location":{"lat":40.170474767126144,"lng":-87.46067754006944}},{"name":"Schiller","id":7009,"start":"2014/07/19 21:00:00","percent_done":"10","location":{"lat":40.51140246205032,"lng":-94.86006873673759}},{"name":"Hahn","id":2266,"start":"2014/07/19 21:00:00","percent_done":"10","location":{"lat":41.38364268713631,"lng":-95.55280577428638}},{"name":"Hane","id":353,"start":"2014/07/19 21:00:00","percent_done":"10","location":{"lat":40.45937687964179,"lng":-95.77594909248873}},{"name":"Harvey","id":3343,"start":"2014/07/19 21:00:00","percent_done":"10","location":{"lat":41.23250620570034,"lng":-94.33861663579009}},{"name":"Carter","id":2683,"start":"2014/07/19 21:00:00","percent_done":"10","location":{"lat":41.73041410595179,"lng":-95.97668714416213}},{"name":"Kshlerin","id":2947,"start":"2014/07/19 21:00:00","percent_done":"10","location":{"lat":41.876453852420674,"lng":-87.99152316446416}},{"name":"Mertz","id":7379,"start":"2014/07/19 21:00:00","percent_done":"10","location":{"lat":39.398867468955,"lng":-93.1025451737456}},{"name":"Weissnat","id":5237,"start":"2014/07/19 21:00:00","percent_done":"10","location":{"lat":40.83709847801365,"lng":-99.6533206637483}},{"name":"Corwin","id":1751,"start":"2014/07/19 21:00:00","percent_done":"10","location":{"lat":40.73800251064822,"lng":-88.9868166997563}},{"name":"Ebert","id":7584,"start":"2014/07/19 21:00:00","percent_done":"10","location":{"lat":41.589377873018385,"lng":-89.77189730866812}},{"name":"Ernser","id":4349,"start":"2014/07/19 21:00:00","percent_done":"10","location":{"lat":40.32093895147555,"lng":-88.44447109093889}},{"name":"Rutherford","id":7605,"start":"2014/07/19 21:00:00","percent_done":"10","location":{"lat":40.98398691243492,"lng":-99.33279876168817}},{"name":"Schuppe","id":1950,"start":"2014/07/19 21:00:00","percent_done":"10","location":{"lat":39.42798611675389,"lng":-99.98085985579527}},{"name":"Cormier","id":2594,"start":"2014/07/19 21:00:00","percent_done":"10","location":{"lat":39.955640856316315,"lng":-96.09135583243332}},{"name":"Glover","id":9535,"start":"2014/07/19 21:00:00","percent_done":"10","location":{"lat":41.48432424236089,"lng":-87.83184834234416}},{"name":"Morissette","id":3964,"start":"2014/07/19 21:00:00","percent_done":"10","location":{"lat":40.143247597059236,"lng":-92.55590781304053}},{"name":"Christiansen","id":180,"start":"2014/07/19 21:00:00","percent_done":"10","location":{"lat":42.036437056865545,"lng":-87.91311033875681}},{"name":"Gislason","id":7878,"start":"2014/07/19 21:00:00","percent_done":"10","location":{"lat":39.17126280036755,"lng":-89.22452587066218}},{"name":"Langosh","id":7429,"start":"2014/07/19 21:00:00","percent_done":"10","location":{"lat":40.06526693040505,"lng":-92.30590145350433}},{"name":"Mertz","id":557,"start":"2014/07/19 21:00:00","percent_done":"10","location":{"lat":40.39268807126209,"lng":-93.55388703257776}},{"name":"Yost","id":2431,"start":"2014/07/19 21:00:00","percent_done":"10","location":{"lat":40.58958944156766,"lng":-95.89149878490716}},{"name":"Kshlerin","id":1347,"start":"2014/07/19 21:00:00","percent_done":"10","location":{"lat":39.62132313651964,"lng":-99.25619975398294}},{"name":"Lubowitz","id":4769,"start":"2014/07/19 21:00:00","percent_done":"10","location":{"lat":40.8047427399084,"lng":-93.28278279574587}},{"name":"Bode","id":8482,"start":"2014/07/19 21:00:00","percent_done":"10","location":{"lat":40.35296657648869,"lng":-92.23987481943331}},{"name":"Maggio","id":8516,"start":"2014/07/19 21:00:00","percent_done":"10","location":{"lat":41.0095994331874,"lng":-99.68830117271281}},{"name":"Moore","id":7006,"start":"2014/07/19 21:00:00","percent_done":"10","location":{"lat":41.49547357335687,"lng":-97.62511295326985}},{"name":"Ferry","id":3526,"start":"2014/07/19 21:00:00","percent_done":"10","location":{"lat":39.43442656300031,"lng":-88.9174852952361}},{"name":"Donnelly","id":2367,"start":"2014/07/19 21:00:00","percent_done":"10","location":{"lat":41.35685322843492,"lng":-96.85265093054622}},{"name":"Stiedemann","id":1106,"start":"2014/07/19 21:00:00","percent_done":"10","location":{"lat":40.891089592967184,"lng":-87.12605865756049}},{"name":"Mueller","id":8140,"start":"2014/07/19 21:00:00","percent_done":"10","location":{"lat":39.6646838224493,"lng":-89.31936534601263}},{"name":"Luettgen","id":2082,"start":"2014/07/19 21:00:00","percent_done":"10","location":{"lat":41.63939580731094,"lng":-99.39815970594063}},{"name":"Dach","id":9541,"start":"2014/07/19 21:00:00","percent_done":"10","location":{"lat":39.977641318831594,"lng":-99.18911635261028}},{"name":"Walter","id":4095,"start":"2014/07/19 21:00:00","percent_done":"10","location":{"lat":40.04869470852427,"lng":-99.20174149787053}},{"name":"Beer","id":5272,"start":"2014/07/19 21:00:00","percent_done":"10","location":{"lat":40.622076984401794,"lng":-91.40279022781178}},{"name":"Schamberger","id":8440,"start":"2014/07/19 21:00:00","percent_done":"10","location":{"lat":41.843928968906404,"lng":-96.18859124570153}},{"name":"Heidenreich","id":4426,"start":"2014/07/19 21:00:00","percent_done":"10","location":{"lat":40.544782425416635,"lng":-96.11686883391812}},{"name":"Sauer","id":6376,"start":"2014/07/19 21:00:00","percent_done":"10","location":{"lat":39.79961052038707,"lng":-90.13699089004658}},{"name":"Lakin","id":7697,"start":"2014/07/19 21:00:00","percent_done":"10","location":{"lat":41.71151847150177,"lng":-91.2582869994454}},{"name":"Stoltenberg","id":5195,"start":"2014/07/19 21:00:00","percent_done":"10","location":{"lat":39.158765057241546,"lng":-99.70625820793211}},{"name":"Bailey","id":3829,"start":"2014/07/19 21:00:00","percent_done":"10","location":{"lat":41.62334000286646,"lng":-92.38270995803177}},{"name":"Steuber","id":1720,"start":"2014/07/19 21:00:00","percent_done":"10","location":{"lat":41.05854576700367,"lng":-89.57075985884293}},{"name":"Boyer","id":7050,"start":"2014/07/19 21:00:00","percent_done":"10","location":{"lat":40.43104088925757,"lng":-91.41479992205277}},{"name":"Rice","id":2613,"start":"2014/07/19 21:00:00","percent_done":"10","location":{"lat":41.958468730468304,"lng":-91.8201969642192}},{"name":"McCullough","id":3347,"start":"2014/07/19 21:00:00","percent_done":"10","location":{"lat":41.56045913989656,"lng":-89.95074946819804}},{"name":"Bosco","id":604,"start":"2014/07/19 21:00:00","percent_done":"10","location":{"lat":41.558027575630696,"lng":-88.22188216415233}},{"name":"Bernier","id":402,"start":"2014/07/19 21:00:00","percent_done":"10","location":{"lat":41.189741214644165,"lng":-99.57394689312204}},{"name":"Haag","id":8487,"start":"2014/07/19 21:00:00","percent_done":"10","location":{"lat":39.11817038538866,"lng":-88.31282213344238}},{"name":"Senger","id":108,"start":"2014/07/19 21:00:00","percent_done":"10","location":{"lat":40.80255939173512,"lng":-88.42005389942787}},{"name":"Romaguera","id":8766,"start":"2014/07/19 21:00:00","percent_done":"10","location":{"lat":39.60914215180092,"lng":-96.14781290749087}},{"name":"Spinka","id":7942,"start":"2014/07/19 21:00:00","percent_done":"10","location":{"lat":40.73593454496004,"lng":-96.21283873673528}},{"name":"Sporer","id":6351,"start":"2014/07/19 21:00:00","percent_done":"10","location":{"lat":39.833950040536,"lng":-91.66018348573706}},{"name":"Murphy","id":4437,"start":"2014/07/19 21:00:00","percent_done":"10","location":{"lat":39.8159501996357,"lng":-99.48844368932768}},{"name":"Schinner","id":993,"start":"2014/07/19 21:00:00","percent_done":"10","location":{"lat":41.94144872077741,"lng":-95.74642151212319}},{"name":"Ward","id":6257,"start":"2014/07/19 21:00:00","percent_done":"10","location":{"lat":39.311570291081445,"lng":-96.05999458129517}},{"name":"Bogisich","id":243,"start":"2014/07/19 21:00:00","percent_done":"10","location":{"lat":42.0445868791081,"lng":-92.19592024679295}},{"name":"Fisher","id":1215,"start":"2014/07/19 21:00:00","percent_done":"10","location":{"lat":40.82497999086045,"lng":-96.02265918082557}},{"name":"White","id":5341,"start":"2014/07/19 21:00:00","percent_done":"10","location":{"lat":41.94321132814512,"lng":-98.4048898668494}},{"name":"Yundt","id":8866,"start":"2014/07/19 21:00:00","percent_done":"10","location":{"lat":40.856779851624744,"lng":-97.78185980501584}},{"name":"Okuneva","id":4960,"start":"2014/07/19 21:00:00","percent_done":"10","location":{"lat":40.03714659661055,"lng":-99.12010061289183}},{"name":"Schoen","id":9305,"start":"2014/07/19 21:00:00","percent_done":"10","location":{"lat":39.979568027099596,"lng":-88.68409054693765}},{"name":"Effertz","id":6505,"start":"2014/07/19 21:00:00","percent_done":"10","location":{"lat":39.605013117333876,"lng":-92.29165739486925}},{"name":"Braun","id":3015,"start":"2014/07/19 21:00:00","percent_done":"10","location":{"lat":40.11594399451278,"lng":-93.50928698005154}},{"name":"Keeling","id":7772,"start":"2014/07/19 21:00:00","percent_done":"10","location":{"lat":41.35567738013342,"lng":-90.13260238352231}},{"name":"Paucek","id":6860,"start":"2014/07/19 21:00:00","percent_done":"10","location":{"lat":40.1690826412756,"lng":-87.56641834452748}},{"name":"Kozey","id":1309,"start":"2014/07/19 21:00:00","percent_done":"10","location":{"lat":41.05053158700466,"lng":-99.34688950390554}},{"name":"Davis","id":3706,"start":"2014/07/19 21:00:00","percent_done":"10","location":{"lat":40.25748185780831,"lng":-99.89447640455327}},{"name":"Larson","id":8098,"start":"2014/07/19 21:00:00","percent_done":"10","location":{"lat":39.92188508473337,"lng":-96.20558190289884}},{"name":"Hermiston","id":1529,"start":"2014/07/19 21:00:00","percent_done":"10","location":{"lat":40.589902088651435,"lng":-97.06310087339952}},{"name":"Frami","id":7953,"start":"2014/07/19 21:00:00","percent_done":"10","location":{"lat":39.763816540967674,"lng":-94.12421685121953}},{"name":"Auer","id":822,"start":"2014/07/19 21:00:00","percent_done":"10","location":{"lat":41.350376688316466,"lng":-92.52181281815282}},{"name":"Eichmann","id":2323,"start":"2014/07/19 21:00:00","percent_done":"10","location":{"lat":41.72288347585127,"lng":-88.2060355217196}},{"name":"Christiansen","id":826,"start":"2014/07/19 21:00:00","percent_done":"10","location":{"lat":41.49250769489445,"lng":-88.34208984198048}},{"name":"Hagenes","id":1344,"start":"2014/07/19 21:00:00","percent_done":"10","location":{"lat":41.583629198512064,"lng":-90.32748555685393}},{"name":"Bernhard","id":2830,"start":"2014/07/19 21:00:00","percent_done":"10","location":{"lat":42.02634544032626,"lng":-87.15622661462984}},{"name":"Ziemann","id":7645,"start":"2014/07/19 21:00:00","percent_done":"10","location":{"lat":41.18015241101384,"lng":-94.10387220177799}},{"name":"Champlin","id":3346,"start":"2014/07/19 21:00:00","percent_done":"10","location":{"lat":39.78710923311301,"lng":-92.33755186074413}},{"name":"Hudson","id":8415,"start":"2014/07/19 21:00:00","percent_done":"10","location":{"lat":41.49224362792447,"lng":-89.59384592799469}},{"name":"Tromp","id":981,"start":"2014/07/19 21:00:00","percent_done":"10","location":{"lat":40.90014961445704,"lng":-96.4308325537946}},{"name":"Corkery","id":8744,"start":"2014/07/19 21:00:00","percent_done":"10","location":{"lat":39.975806350493805,"lng":-98.72399046309292}},{"name":"Fadel","id":8929,"start":"2014/07/19 21:00:00","percent_done":"10","location":{"lat":40.96164894909598,"lng":-91.39085935745388}},{"name":"Koepp","id":4224,"start":"2014/07/19 21:00:00","percent_done":"10","location":{"lat":39.66298487633467,"lng":-95.8792793244589}},{"name":"Brown","id":8409,"start":"2014/07/19 21:00:00","percent_done":"10","location":{"lat":40.936058808723466,"lng":-94.80166362635791}},{"name":"Adams","id":7082,"start":"2014/07/19 21:00:00","percent_done":"10","location":{"lat":41.105930420942606,"lng":-93.33870171513408}},{"name":"Leffler","id":1885,"start":"2014/07/19 21:00:00","percent_done":"10","location":{"lat":41.52083528311923,"lng":-96.4216338774655}},{"name":"Hackett","id":2911,"start":"2014/07/19 21:00:00","percent_done":"10","location":{"lat":40.15899101914838,"lng":-99.23023763010278}},{"name":"Grant","id":9336,"start":"2014/07/19 21:00:00","percent_done":"10","location":{"lat":39.18457892108709,"lng":-89.41742890644818}},{"name":"Hilll","id":4116,"start":"2014/07/19 21:00:00","percent_done":"10","location":{"lat":42.059553917637096,"lng":-90.44313651989214}},{"name":"Durgan","id":9687,"start":"2014/07/19 21:00:00","percent_done":"10","location":{"lat":41.25651293331757,"lng":-91.32964730928651}},{"name":"Jakubowski","id":9143,"start":"2014/07/19 21:00:00","percent_done":"10","location":{"lat":39.310065960884096,"lng":-89.05313348271883}},{"name":"Davis","id":7262,"start":"2014/07/19 21:00:00","percent_done":"10","location":{"lat":41.705410443153234,"lng":-90.92057109382003}},{"name":"Bailey","id":633,"start":"2014/07/19 21:00:00","percent_done":"10","location":{"lat":39.47730335746892,"lng":-97.56570436842739}},{"name":"Kovacek","id":8492,"start":"2014/07/19 21:00:00","percent_done":"10","location":{"lat":41.188928614975886,"lng":-96.82430182807147}},{"name":"Marks","id":3879,"start":"2014/07/19 21:00:00","percent_done":"10","location":{"lat":39.743265552585946,"lng":-99.2144485513214}},{"name":"Ondricka","id":8227,"start":"2014/07/19 21:00:00","percent_done":"10","location":{"lat":40.815390763245524,"lng":-98.93867150987498}},{"name":"Waelchi","id":1210,"start":"2014/07/19 21:00:00","percent_done":"10","location":{"lat":40.71635917099193,"lng":-88.490026954934}},{"name":"Rempel","id":3770,"start":"2014/07/19 21:00:00","percent_done":"10","location":{"lat":39.49950906694867,"lng":-90.49930195990018}},{"name":"Nitzsche","id":3038,"start":"2014/07/19 21:00:00","percent_done":"10","location":{"lat":40.382441230956466,"lng":-99.3923707361333}},{"name":"Dare","id":1297,"start":"2014/07/19 21:00:00","percent_done":"10","location":{"lat":41.556731707556175,"lng":-88.8556190046016}},{"name":"Nader","id":3363,"start":"2014/07/19 21:00:00","percent_done":"10","location":{"lat":39.641477019665764,"lng":-87.39011078109033}},{"name":"Rowe","id":9067,"start":"2014/07/19 21:00:00","percent_done":"10","location":{"lat":39.34467726564035,"lng":-87.21275288532487}},{"name":"Hane","id":731,"start":"2014/07/19 21:00:00","percent_done":"10","location":{"lat":39.53459524353966,"lng":-87.86401214604265}},{"name":"Lang","id":755,"start":"2014/07/19 21:00:00","percent_done":"10","location":{"lat":41.88047937806696,"lng":-87.82792609292082}},{"name":"Mann","id":1137,"start":"2014/07/19 21:00:00","percent_done":"10","location":{"lat":41.67807159959339,"lng":-90.90361297470517}},{"name":"Schowalter","id":5858,"start":"2014/07/19 21:00:00","percent_done":"10","location":{"lat":40.374878065800296,"lng":-89.46327224969863}},{"name":"Vandervort","id":9049,"start":"2014/07/19 21:00:00","percent_done":"10","location":{"lat":40.60300605362281,"lng":-88.36217090571299}},{"name":"Howell","id":4503,"start":"2014/07/19 21:00:00","percent_done":"10","location":{"lat":39.99725117105991,"lng":-95.98794680987484}},{"name":"Wehner","id":4934,"start":"2014/07/19 21:00:00","percent_done":"10","location":{"lat":41.86036129402928,"lng":-90.43834919938817}},{"name":"Nicolas","id":9712,"start":"2014/07/19 21:00:00","percent_done":"10","location":{"lat":41.214999043988065,"lng":-96.3513698497787}},{"name":"Steuber","id":8151,"start":"2014/07/19 21:00:00","percent_done":"10","location":{"lat":39.321821585670115,"lng":-89.08869918077252}},{"name":"Robel","id":763,"start":"2014/07/19 21:00:00","percent_done":"10","location":{"lat":39.45099631291814,"lng":-92.49833536278456}},{"name":"Bernhard","id":9569,"start":"2014/07/19 21:00:00","percent_done":"10","location":{"lat":41.71085487273522,"lng":-99.53360360874794}},{"name":"Senger","id":6452,"start":"2014/07/19 21:00:00","percent_done":"10","location":{"lat":41.207016236754136,"lng":-97.84585605971515}},{"name":"Von","id":4210,"start":"2014/07/19 21:00:00","percent_done":"10","location":{"lat":39.83009218648076,"lng":-95.69021655120886}},{"name":"Wintheiser","id":1367,"start":"2014/07/19 21:00:00","percent_done":"10","location":{"lat":40.90169506906532,"lng":-95.56141431573778}},{"name":"Hayes","id":8510,"start":"2014/07/19 21:00:00","percent_done":"10","location":{"lat":40.500225582532586,"lng":-94.9748942434322}},{"name":"Lindgren","id":8489,"start":"2014/07/19 21:00:00","percent_done":"10","location":{"lat":40.353687001764776,"lng":-99.14361058212816}},{"name":"Thiel","id":1507,"start":"2014/07/19 21:00:00","percent_done":"10","location":{"lat":39.66405323022045,"lng":-97.54395407987758}},{"name":"Bartell","id":243,"start":"2014/07/19 21:00:00","percent_done":"10","location":{"lat":40.878893377631904,"lng":-98.8608362881001}},{"name":"Murazik","id":5572,"start":"2014/07/19 21:00:00","percent_done":"10","location":{"lat":40.69298096667044,"lng":-90.18836813480593}},{"name":"Witting","id":4947,"start":"2014/07/19 21:00:00","percent_done":"10","location":{"lat":39.45278736287728,"lng":-89.66046057213097}},{"name":"Bayer","id":196,"start":"2014/07/19 21:00:00","percent_done":"10","location":{"lat":41.395471564866604,"lng":-99.4151728613302}},{"name":"VonRueden","id":4900,"start":"2014/07/19 21:00:00","percent_done":"10","location":{"lat":39.35627266126685,"lng":-94.56666904864832}},{"name":"Braun","id":3503,"start":"2014/07/19 21:00:00","percent_done":"10","location":{"lat":41.524724536482246,"lng":-91.29577617035247}},{"name":"Willms","id":8617,"start":"2014/07/19 21:00:00","percent_done":"10","location":{"lat":41.4758009490557,"lng":-99.58437609313987}},{"name":"Pouros","id":2151,"start":"2014/07/19 21:00:00","percent_done":"10","location":{"lat":41.49109757449478,"lng":-97.9868543463759}},{"name":"Mitchell","id":7424,"start":"2014/07/19 21:00:00","percent_done":"10","location":{"lat":40.72017490458675,"lng":-94.40654810369014}},{"name":"Medhurst","id":2987,"start":"2014/07/19 21:00:00","percent_done":"10","location":{"lat":40.52264343588613,"lng":-98.04817959074862}},{"name":"Ritchie","id":8499,"start":"2014/07/19 21:00:00","percent_done":"10","location":{"lat":40.47129483604804,"lng":-97.5906716987025}},{"name":"Luettgen","id":6754,"start":"2014/07/19 21:00:00","percent_done":"10","location":{"lat":39.88028723667376,"lng":-99.23254976808093}},{"name":"Beatty","id":2233,"start":"2014/07/19 21:00:00","percent_done":"10","location":{"lat":41.32130823135376,"lng":-88.02987756081856}},{"name":"Blick","id":5310,"start":"2014/07/19 21:00:00","percent_done":"10","location":{"lat":40.03898533820175,"lng":-98.2039564081002}},{"name":"Boehm","id":1608,"start":"2014/07/19 21:00:00","percent_done":"10","location":{"lat":40.326051361998545,"lng":-97.98150731939822}},{"name":"Breitenberg","id":4400,"start":"2014/07/19 21:00:00","percent_done":"10","location":{"lat":41.86105504180305,"lng":-89.89737321077845}},{"name":"Bayer","id":7674,"start":"2014/07/19 21:00:00","percent_done":"10","location":{"lat":39.97044271687046,"lng":-92.05716756908222}},{"name":"Corwin","id":7654,"start":"2014/07/19 21:00:00","percent_done":"10","location":{"lat":40.01719691688195,"lng":-90.91055988860316}},{"name":"Turcotte","id":9340,"start":"2014/07/19 21:00:00","percent_done":"10","location":{"lat":40.374547466775404,"lng":-92.25887800394557}},{"name":"Gislason","id":9236,"start":"2014/07/19 21:00:00","percent_done":"10","location":{"lat":42.02173756379634,"lng":-90.10033418857492}},{"name":"Doyle","id":3895,"start":"2014/07/19 21:00:00","percent_done":"10","location":{"lat":41.59360667099245,"lng":-88.43908025105483}},{"name":"Rice","id":769,"start":"2014/07/19 21:00:00","percent_done":"10","location":{"lat":41.15903494777158,"lng":-90.37061252412386}},{"name":"Prohaska","id":6200,"start":"2014/07/19 21:00:00","percent_done":"10","location":{"lat":40.862439930811526,"lng":-96.1239414719399}},{"name":"Hessel","id":4306,"start":"2014/07/19 21:00:00","percent_done":"10","location":{"lat":42.04284451194108,"lng":-91.68032090542837}},{"name":"Hills","id":610,"start":"2014/07/19 21:00:00","percent_done":"10","location":{"lat":40.7134616190102,"lng":-87.5730127332732}},{"name":"Ferry","id":8849,"start":"2014/07/19 21:00:00","percent_done":"10","location":{"lat":41.9174753964413,"lng":-93.62153446571901}},{"name":"Leuschke","id":7545,"start":"2014/07/19 21:00:00","percent_done":"10","location":{"lat":39.68220955496654,"lng":-92.117501875991}},{"name":"Feest","id":379,"start":"2014/07/19 21:00:00","percent_done":"10","location":{"lat":40.04664701097645,"lng":-99.21192359915003}},{"name":"Jewess","id":4880,"start":"2014/07/19 21:00:00","percent_done":"10","location":{"lat":41.68610137132928,"lng":-88.99212642447091}},{"name":"Morissette","id":6489,"start":"2014/07/19 21:00:00","percent_done":"10","location":{"lat":39.74190184976906,"lng":-98.45086860484443}},{"name":"Monahan","id":9281,"start":"2014/07/19 21:00:00","percent_done":"10","location":{"lat":39.37054689847864,"lng":-95.157615368627}},{"name":"Heidenreich","id":8631,"start":"2014/07/19 21:00:00","percent_done":"10","location":{"lat":42.08421001713723,"lng":-92.17372816978022}},{"name":"Bogisich","id":8498,"start":"2014/07/19 21:00:00","percent_done":"10","location":{"lat":39.44197856206447,"lng":-91.70320074064657}},{"name":"Jacobs","id":2645,"start":"2014/07/19 21:00:00","percent_done":"10","location":{"lat":39.847874412918465,"lng":-98.41719966512173}},{"name":"Erdman","id":3438,"start":"2014/07/19 21:00:00","percent_done":"10","location":{"lat":39.21179592460394,"lng":-91.73300207676365}},{"name":"Pollich","id":5022,"start":"2014/07/19 21:00:00","percent_done":"10","location":{"lat":42.012369468947874,"lng":-91.94469253779388}},{"name":"Franecki","id":9727,"start":"2014/07/19 21:00:00","percent_done":"10","location":{"lat":39.14588731843978,"lng":-94.99306798833422}},{"name":"Hegmann","id":1996,"start":"2014/07/19 21:00:00","percent_done":"10","location":{"lat":42.020673361048104,"lng":-93.2959300818853}},{"name":"Tromp","id":3519,"start":"2014/07/19 21:00:00","percent_done":"10","location":{"lat":40.43690945641138,"lng":-89.72210288573987}},{"name":"Gleichner","id":4413,"start":"2014/07/19 21:00:00","percent_done":"10","location":{"lat":40.67876656507142,"lng":-89.85864311610348}},{"name":"Kulas","id":9890,"start":"2014/07/19 21:00:00","percent_done":"10","location":{"lat":39.67788919727318,"lng":-88.43276739995926}},{"name":"Volkman","id":9050,"start":"2014/07/19 21:00:00","percent_done":"10","location":{"lat":42.06938215871342,"lng":-87.91908937939442}},{"name":"Cartwright","id":6887,"start":"2014/07/19 21:00:00","percent_done":"10","location":{"lat":40.545023643318565,"lng":-91.85140131218358}},{"name":"Oberbrunner","id":3791,"start":"2014/07/19 21:00:00","percent_done":"10","location":{"lat":39.39887992865406,"lng":-95.4259540349245}},{"name":"Mills","id":5689,"start":"2014/07/19 21:00:00","percent_done":"10","location":{"lat":39.19988044225611,"lng":-92.78103115679696}},{"name":"Steuber","id":388,"start":"2014/07/19 21:00:00","percent_done":"10","location":{"lat":41.91776959775016,"lng":-88.70773497866466}},{"name":"Keebler","id":4245,"start":"2014/07/19 21:00:00","percent_done":"10","location":{"lat":41.55948822842911,"lng":-87.62608797256834}},{"name":"Ruecker","id":1698,"start":"2014/07/19 21:00:00","percent_done":"10","location":{"lat":40.73931898213923,"lng":-87.36552347140386}},{"name":"Kirlin","id":3332,"start":"2014/07/19 21:00:00","percent_done":"10","location":{"lat":39.71189339240082,"lng":-94.55835896767675}},{"name":"Mann","id":4299,"start":"2014/07/19 21:00:00","percent_done":"10","location":{"lat":40.36493255561218,"lng":-94.42963763852603}},{"name":"Robel","id":6973,"start":"2014/07/19 21:00:00","percent_done":"10","location":{"lat":39.66956451945007,"lng":-92.49056512038223}},{"name":"Blanda","id":6151,"start":"2014/07/19 21:00:00","percent_done":"10","location":{"lat":40.92200377085246,"lng":-92.8539988993667}},{"name":"Kshlerin","id":7478,"start":"2014/07/19 21:00:00","percent_done":"10","location":{"lat":40.92087755110115,"lng":-93.40386051163077}},{"name":"Wintheiser","id":7339,"start":"2014/07/19 21:00:00","percent_done":"10","location":{"lat":40.87978893159889,"lng":-97.73901558006182}},{"name":"Crona","id":2585,"start":"2014/07/19 21:00:00","percent_done":"10","location":{"lat":40.282693543378265,"lng":-89.26624154779128}},{"name":"McGlynn","id":74,"start":"2014/07/19 21:00:00","percent_done":"10","location":{"lat":41.32592564998195,"lng":-95.99914055191911}},{"name":"Feeney","id":5549,"start":"2014/07/19 21:00:00","percent_done":"10","location":{"lat":40.54689205195755,"lng":-87.91763578066602}},{"name":"Williamson","id":8907,"start":"2014/07/19 21:00:00","percent_done":"10","location":{"lat":39.93376173651777,"lng":-89.3308980198577}},{"name":"Renner","id":3095,"start":"2014/07/19 21:00:00","percent_done":"10","location":{"lat":39.48636228721589,"lng":-87.24417616766877}},{"name":"Koelpin","id":2605,"start":"2014/07/19 21:00:00","percent_done":"10","location":{"lat":39.81541482862085,"lng":-91.295691017434}},{"name":"Flatley","id":9498,"start":"2014/07/19 21:00:00","percent_done":"10","location":{"lat":41.362930074706675,"lng":-94.18040312770754}},{"name":"Murphy","id":7902,"start":"2014/07/19 21:00:00","percent_done":"10","location":{"lat":41.52109065456316,"lng":-92.53828647397458}},{"name":"Hilpert","id":6648,"start":"2014/07/19 21:00:00","percent_done":"10","location":{"lat":41.97806564872153,"lng":-89.18903241623192}},{"name":"Effertz","id":1711,"start":"2014/07/19 21:00:00","percent_done":"10","location":{"lat":39.37911420236342,"lng":-91.51598439007066}},{"name":"Lemke","id":7513,"start":"2014/07/19 21:00:00","percent_done":"10","location":{"lat":39.27437651916407,"lng":-87.62590457280166}},{"name":"Mraz","id":5562,"start":"2014/07/19 21:00:00","percent_done":"10","location":{"lat":40.67098367321305,"lng":-98.97985473079606}},{"name":"Hamill","id":1957,"start":"2014/07/19 21:00:00","percent_done":"10","location":{"lat":41.48812573649921,"lng":-88.74769395045004}},{"name":"Kemmer","id":3430,"start":"2014/07/19 21:00:00","percent_done":"10","location":{"lat":39.15031421221793,"lng":-94.21424225824885}},{"name":"Harvey","id":1670,"start":"2014/07/19 21:00:00","percent_done":"10","location":{"lat":41.28174195685424,"lng":-92.7010841045063}},{"name":"Stamm","id":9492,"start":"2014/07/19 21:00:00","percent_done":"10","location":{"lat":40.99053337997757,"lng":-88.06890315576456}},{"name":"Bayer","id":2455,"start":"2014/07/19 21:00:00","percent_done":"10","location":{"lat":41.8472941367887,"lng":-96.49783460996113}},{"name":"Gleichner","id":5301,"start":"2014/07/19 21:00:00","percent_done":"10","location":{"lat":40.44723483165726,"lng":-91.45901908832602}},{"name":"Gibson","id":2626,"start":"2014/07/19 21:00:00","percent_done":"10","location":{"lat":41.363125067111106,"lng":-97.71925354087725}},{"name":"Friesen","id":6224,"start":"2014/07/19 21:00:00","percent_done":"10","location":{"lat":40.78401531944983,"lng":-96.16040381663478}},{"name":"Dach","id":23,"start":"2014/07/19 21:00:00","percent_done":"10","location":{"lat":39.75790467290208,"lng":-87.72338011106476}},{"name":"Von","id":7242,"start":"2014/07/19 21:00:00","percent_done":"10","location":{"lat":41.025419297534974,"lng":-96.90713358870707}},{"name":"Kuvalis","id":1175,"start":"2014/07/19 21:00:00","percent_done":"10","location":{"lat":41.3072770986706,"lng":-99.20342698264866}},{"name":"Cassin","id":6984,"start":"2014/07/19 21:00:00","percent_done":"10","location":{"lat":41.26311726043932,"lng":-97.7452251295559}},{"name":"Predovic","id":7342,"start":"2014/07/19 21:00:00","percent_done":"10","location":{"lat":39.73034078292549,"lng":-96.2392631526105}},{"name":"Hammes","id":4778,"start":"2014/07/19 21:00:00","percent_done":"10","location":{"lat":39.51714971675538,"lng":-89.94136778558604}},{"name":"Considine","id":54,"start":"2014/07/19 21:00:00","percent_done":"10","location":{"lat":41.88713652375154,"lng":-93.74987025340087}},{"name":"Abshire","id":2133,"start":"2014/07/19 21:00:00","percent_done":"10","location":{"lat":40.72139107612893,"lng":-93.91805624184198}},{"name":"Pfannerstill","id":5267,"start":"2014/07/19 21:00:00","percent_done":"10","location":{"lat":39.572435489296915,"lng":-97.1431400553789}},{"name":"Reinger","id":7149,"start":"2014/07/19 21:00:00","percent_done":"10","location":{"lat":39.783061125222595,"lng":-95.21046359804458}},{"name":"Hegmann","id":2951,"start":"2014/07/19 21:00:00","percent_done":"10","location":{"lat":39.79062919449061,"lng":-88.92158437022007}},{"name":"Armstrong","id":4609,"start":"2014/07/19 21:00:00","percent_done":"10","location":{"lat":39.522817380167545,"lng":-94.6252584486734}},{"name":"McCullough","id":5260,"start":"2014/07/19 21:00:00","percent_done":"10","location":{"lat":41.1174536567647,"lng":-100.04332183548249}},{"name":"Jerde","id":8970,"start":"2014/07/19 21:00:00","percent_done":"10","location":{"lat":41.55049011567608,"lng":-90.27064565536566}},{"name":"Deckow","id":2836,"start":"2014/07/19 21:00:00","percent_done":"10","location":{"lat":39.162140599126,"lng":-92.85968735828064}},{"name":"Kozey","id":4110,"start":"2014/07/19 21:00:00","percent_done":"10","location":{"lat":40.018412506580354,"lng":-97.99249026309698}},{"name":"Ziemann","id":1850,"start":"2014/07/19 21:00:00","percent_done":"10","location":{"lat":39.641057894472034,"lng":-94.43869574428535}},{"name":"Stamm","id":3486,"start":"2014/07/19 21:00:00","percent_done":"10","location":{"lat":40.624676244007425,"lng":-94.2085571500007}},{"name":"Schoen","id":5675,"start":"2014/07/19 21:00:00","percent_done":"10","location":{"lat":42.024650080967696,"lng":-91.6357634157408}},{"name":"Murray","id":5027,"start":"2014/07/19 21:00:00","percent_done":"10","location":{"lat":41.10255313422531,"lng":-93.74048754167742}},{"name":"Tremblay","id":632,"start":"2014/07/19 21:00:00","percent_done":"10","location":{"lat":39.587366570858286,"lng":-89.27414647666737}},{"name":"Rodriguez","id":7862,"start":"2014/07/19 21:00:00","percent_done":"10","location":{"lat":39.71635393463075,"lng":-95.89101130389608}},{"name":"Becker","id":5656,"start":"2014/07/19 21:00:00","percent_done":"10","location":{"lat":40.300422452529894,"lng":-90.04842992676421}},{"name":"Marquardt","id":6939,"start":"2014/07/19 21:00:00","percent_done":"10","location":{"lat":39.414773870864884,"lng":-91.52921533389016}},{"name":"Grant","id":7767,"start":"2014/07/19 21:00:00","percent_done":"10","location":{"lat":41.330089630000295,"lng":-99.69817249141633}},{"name":"Abernathy","id":5791,"start":"2014/07/19 21:00:00","percent_done":"10","location":{"lat":41.90699000018649,"lng":-94.45441799741238}},{"name":"Friesen","id":4236,"start":"2014/07/19 21:00:00","percent_done":"10","location":{"lat":42.00880307531916,"lng":-92.21400714376941}},{"name":"Harris","id":4314,"start":"2014/07/19 21:00:00","percent_done":"10","location":{"lat":39.3976779518649,"lng":-95.09237663438543}},{"name":"Ratke","id":592,"start":"2014/07/19 21:00:00","percent_done":"10","location":{"lat":42.06961602848023,"lng":-97.22662953627295}},{"name":"Mayer","id":9452,"start":"2014/07/19 21:00:00","percent_done":"10","location":{"lat":40.955302455602215,"lng":-91.12169297076761}},{"name":"Schuster","id":3089,"start":"2014/07/19 21:00:00","percent_done":"10","location":{"lat":41.612990621151404,"lng":-97.68065940393134}},{"name":"Davis","id":7507,"start":"2014/07/19 21:00:00","percent_done":"10","location":{"lat":41.86595168397762,"lng":-93.39772034543566}},{"name":"Wisoky","id":2141,"start":"2014/07/19 21:00:00","percent_done":"10","location":{"lat":39.18701971033588,"lng":-87.85779441208578}},{"name":"Heidenreich","id":4998,"start":"2014/07/19 21:00:00","percent_done":"10","location":{"lat":40.639997743442656,"lng":-92.47185486336238}},{"name":"Lesch","id":8233,"start":"2014/07/19 21:00:00","percent_done":"10","location":{"lat":39.21332203727216,"lng":-89.74358525420539}},{"name":"Zboncak","id":2614,"start":"2014/07/19 21:00:00","percent_done":"10","location":{"lat":40.909093622025104,"lng":-100.02907264642417}},{"name":"Pouros","id":9111,"start":"2014/07/19 21:00:00","percent_done":"10","location":{"lat":40.47352591985837,"lng":-92.51712756431661}},{"name":"Lang","id":6523,"start":"2014/07/19 21:00:00","percent_done":"10","location":{"lat":39.14138400265947,"lng":-96.85917614786885}},{"name":"Rowe","id":3269,"start":"2014/07/19 21:00:00","percent_done":"10","location":{"lat":41.46132157314569,"lng":-92.61213842304423}},{"name":"Farrell","id":6504,"start":"2014/07/19 21:00:00","percent_done":"10","location":{"lat":41.646980395913126,"lng":-93.51547595639713}},{"name":"McLaughlin","id":4616,"start":"2014/07/19 21:00:00","percent_done":"10","location":{"lat":40.94667189838365,"lng":-93.89087275033816}},{"name":"Bahringer","id":7805,"start":"2014/07/19 21:00:00","percent_done":"10","location":{"lat":40.01528305527754,"lng":-96.22675257469527}},{"name":"Marquardt","id":3841,"start":"2014/07/19 21:00:00","percent_done":"10","location":{"lat":41.1914696357213,"lng":-92.84048735620453}},{"name":"Glover","id":1465,"start":"2014/07/19 21:00:00","percent_done":"10","location":{"lat":41.24391671679914,"lng":-96.17847789512015}},{"name":"Bins","id":4392,"start":"2014/07/19 21:00:00","percent_done":"10","location":{"lat":39.571947082085536,"lng":-95.9542581051588}},{"name":"Von","id":2090,"start":"2014/07/19 21:00:00","percent_done":"10","location":{"lat":39.808355533191936,"lng":-94.93535537915304}},{"name":"Jast","id":7838,"start":"2014/07/19 21:00:00","percent_done":"10","location":{"lat":41.22830289988779,"lng":-94.74396762521937}},{"name":"Morissette","id":6223,"start":"2014/07/19 21:00:00","percent_done":"10","location":{"lat":41.93600338175893,"lng":-96.20794942220672}},{"name":"Jacobson","id":8442,"start":"2014/07/19 21:00:00","percent_done":"10","location":{"lat":41.51231104894541,"lng":-93.94489634004421}},{"name":"Monahan","id":1962,"start":"2014/07/19 21:00:00","percent_done":"10","location":{"lat":40.3806970665697,"lng":-95.2014495533891}},{"name":"Labadie","id":6765,"start":"2014/07/19 21:00:00","percent_done":"10","location":{"lat":41.45392873315141,"lng":-95.30136241498403}},{"name":"Schaden","id":4760,"start":"2014/07/19 21:00:00","percent_done":"10","location":{"lat":40.409780310606585,"lng":-96.00056997258216}},{"name":"Monahan","id":6264,"start":"2014/07/19 21:00:00","percent_done":"10","location":{"lat":39.91520510534756,"lng":-96.61515403809025}},{"name":"Marks","id":7350,"start":"2014/07/19 21:00:00","percent_done":"10","location":{"lat":41.821377389272676,"lng":-99.77987291351891}},{"name":"Fahey","id":2029,"start":"2014/07/19 21:00:00","percent_done":"10","location":{"lat":41.68829811029136,"lng":-90.81898447931744}},{"name":"Gislason","id":3057,"start":"2014/07/19 21:00:00","percent_done":"10","location":{"lat":41.933416510606186,"lng":-99.1700434942264}},{"name":"Wisozk","id":4991,"start":"2014/07/19 21:00:00","percent_done":"10","location":{"lat":41.47229189951904,"lng":-99.73003679038956}},{"name":"Heidenreich","id":3550,"start":"2014/07/19 21:00:00","percent_done":"10","location":{"lat":39.40720816249959,"lng":-99.28544666236266}},{"name":"Cormier","id":4186,"start":"2014/07/19 21:00:00","percent_done":"10","location":{"lat":39.86281575113535,"lng":-90.75664152847602}},{"name":"Littel","id":9196,"start":"2014/07/19 21:00:00","percent_done":"10","location":{"lat":42.02803569301032,"lng":-95.39030207311734}},{"name":"Rolfson","id":3443,"start":"2014/07/19 21:00:00","percent_done":"10","location":{"lat":39.28629890610464,"lng":-96.51370409866794}},{"name":"Littel","id":7699,"start":"2014/07/19 21:00:00","percent_done":"10","location":{"lat":41.73367062341422,"lng":-99.0874540620949}},{"name":"Koss","id":341,"start":"2014/07/19 21:00:00","percent_done":"10","location":{"lat":41.89058493720368,"lng":-89.9880541769322}},{"name":"Langworth","id":8673,"start":"2014/07/19 21:00:00","percent_done":"10","location":{"lat":39.86148345740512,"lng":-98.51575009515508}},{"name":"Hodkiewicz","id":1696,"start":"2014/07/19 21:00:00","percent_done":"10","location":{"lat":40.216486304672436,"lng":-99.61344561297446}},{"name":"Kuhn","id":4040,"start":"2014/07/19 21:00:00","percent_done":"10","location":{"lat":41.82927318746224,"lng":-88.65464061303064}},{"name":"Dibbert","id":4137,"start":"2014/07/19 21:00:00","percent_done":"10","location":{"lat":41.105845547188075,"lng":-90.77220255010761}},{"name":"Haley","id":7610,"start":"2014/07/19 21:00:00","percent_done":"10","location":{"lat":39.45911497543566,"lng":-97.74115082891657}},{"name":"Lakin","id":8096,"start":"2014/07/19 21:00:00","percent_done":"10","location":{"lat":40.41211720267311,"lng":-98.25742621780373}},{"name":"Schuppe","id":3517,"start":"2014/07/19 21:00:00","percent_done":"10","location":{"lat":40.52270522937179,"lng":-93.70945948655717}},{"name":"DuBuque","id":5346,"start":"2014/07/19 21:00:00","percent_done":"10","location":{"lat":39.690659827226774,"lng":-98.8918631688226}},{"name":"Beer","id":544,"start":"2014/07/19 21:00:00","percent_done":"10","location":{"lat":41.67946928893216,"lng":-96.33645971692167}},{"name":"Kunze","id":8983,"start":"2014/07/19 21:00:00","percent_done":"10","location":{"lat":39.73995887641795,"lng":-93.74173461589962}},{"name":"Waters","id":8136,"start":"2014/07/19 21:00:00","percent_done":"10","location":{"lat":40.91928540300578,"lng":-91.34026814498938}},{"name":"Stanton","id":3386,"start":"2014/07/19 21:00:00","percent_done":"10","location":{"lat":40.2002791216597,"lng":-87.45343872779048}},{"name":"Pfannerstill","id":8224,"start":"2014/07/19 21:00:00","percent_done":"10","location":{"lat":40.77824375326745,"lng":-95.17141884346492}},{"name":"McClure","id":3442,"start":"2014/07/19 21:00:00","percent_done":"10","location":{"lat":41.379198260512204,"lng":-98.41465561990626}},{"name":"Friesen","id":3773,"start":"2014/07/19 21:00:00","percent_done":"10","location":{"lat":40.12819665987045,"lng":-95.05092554180882}},{"name":"Collier","id":5631,"start":"2014/07/19 21:00:00","percent_done":"10","location":{"lat":40.97673053122126,"lng":-93.97449805275537}},{"name":"Shields","id":6958,"start":"2014/07/19 21:00:00","percent_done":"10","location":{"lat":40.44046259825118,"lng":-93.13352350159548}},{"name":"Mitchell","id":6466,"start":"2014/07/19 21:00:00","percent_done":"10","location":{"lat":39.424945696629585,"lng":-90.9495448033791}},{"name":"Nicolas","id":7301,"start":"2014/07/19 21:00:00","percent_done":"10","location":{"lat":40.50505594201386,"lng":-97.81764313895255}},{"name":"Dickens","id":7391,"start":"2014/07/19 21:00:00","percent_done":"10","location":{"lat":40.81204322879203,"lng":-99.4685096038971}},{"name":"Graham","id":4851,"start":"2014/07/19 21:00:00","percent_done":"10","location":{"lat":41.36555586862378,"lng":-89.29244082435034}},{"name":"Blanda","id":2383,"start":"2014/07/19 21:00:00","percent_done":"10","location":{"lat":40.5480485743843,"lng":-88.19986038692295}},{"name":"Abernathy","id":9172,"start":"2014/07/19 21:00:00","percent_done":"10","location":{"lat":39.74037202950567,"lng":-93.18328350982628}},{"name":"Reynolds","id":6181,"start":"2014/07/19 21:00:00","percent_done":"10","location":{"lat":40.07606549970806,"lng":-96.53424205761402}},{"name":"Barton","id":8028,"start":"2014/07/19 21:00:00","percent_done":"10","location":{"lat":40.6935700153932,"lng":-88.324734619027}},{"name":"Hansen","id":4944,"start":"2014/07/19 21:00:00","percent_done":"10","location":{"lat":40.884484835574405,"lng":-88.68558790409006}},{"name":"Pfeffer","id":5597,"start":"2014/07/19 21:00:00","percent_done":"10","location":{"lat":39.717814336670564,"lng":-91.34250864773057}},{"name":"Medhurst","id":2359,"start":"2014/07/19 21:00:00","percent_done":"10","location":{"lat":39.911862338799985,"lng":-99.97128903460688}},{"name":"Hand","id":970,"start":"2014/07/19 21:00:00","percent_done":"10","location":{"lat":41.02922774446197,"lng":-98.29655763567425}},{"name":"Welch","id":8019,"start":"2014/07/19 21:00:00","percent_done":"10","location":{"lat":40.52088665533811,"lng":-96.0718660688959}},{"name":"Lakin","id":6050,"start":"2014/07/19 21:00:00","percent_done":"10","location":{"lat":40.451382619235666,"lng":-95.6729057888966}},{"name":"Reichel","id":9711,"start":"2014/07/19 21:00:00","percent_done":"10","location":{"lat":39.47511822185479,"lng":-93.15171642126515}},{"name":"McDermott","id":7551,"start":"2014/07/19 21:00:00","percent_done":"10","location":{"lat":41.01676506493241,"lng":-100.04221694511361}},{"name":"Swaniawski","id":2625,"start":"2014/07/19 21:00:00","percent_done":"10","location":{"lat":41.527273814799265,"lng":-96.2428730697371}},{"name":"Hilll","id":7298,"start":"2014/07/19 21:00:00","percent_done":"10","location":{"lat":40.99698789245449,"lng":-92.26377858421765}},{"name":"Boehm","id":7599,"start":"2014/07/19 21:00:00","percent_done":"10","location":{"lat":39.949060009699316,"lng":-98.66583066261373}},{"name":"Howe","id":8797,"start":"2014/07/19 21:00:00","percent_done":"10","location":{"lat":39.986930180247874,"lng":-93.7354077477008}},{"name":"Rolfson","id":9418,"start":"2014/07/19 21:00:00","percent_done":"10","location":{"lat":39.66739366450347,"lng":-99.26459839302115}},{"name":"Krajcik","id":1145,"start":"2014/07/19 21:00:00","percent_done":"10","location":{"lat":40.10142213632353,"lng":-95.36170164649374}},{"name":"Murphy","id":1185,"start":"2014/07/19 21:00:00","percent_done":"10","location":{"lat":39.20189851396717,"lng":-87.97884218082763}},{"name":"Stark","id":2348,"start":"2014/07/19 21:00:00","percent_done":"10","location":{"lat":40.39028819338419,"lng":-94.9678687447682}},{"name":"Nader","id":6525,"start":"2014/07/19 21:00:00","percent_done":"10","location":{"lat":42.027307748468594,"lng":-96.89572066408581}},{"name":"Hermann","id":841,"start":"2014/07/19 21:00:00","percent_done":"10","location":{"lat":40.9834486391861,"lng":-89.3521603340283}},{"name":"Braun","id":2463,"start":"2014/07/19 21:00:00","percent_done":"10","location":{"lat":40.11203477475792,"lng":-95.39699099180288}},{"name":"Gibson","id":2826,"start":"2014/07/19 21:00:00","percent_done":"10","location":{"lat":42.06828621719033,"lng":-96.0132730003912}},{"name":"Boyle","id":7927,"start":"2014/07/19 21:00:00","percent_done":"10","location":{"lat":40.95688610444777,"lng":-97.71454179044812}},{"name":"Okuneva","id":6795,"start":"2014/07/19 21:00:00","percent_done":"10","location":{"lat":39.41251615146175,"lng":-94.64678798979148}},{"name":"Braun","id":7699,"start":"2014/07/19 21:00:00","percent_done":"10","location":{"lat":40.03688819371164,"lng":-99.52046971921808}},{"name":"Jacobson","id":67,"start":"2014/07/19 21:00:00","percent_done":"10","location":{"lat":41.69512072522193,"lng":-99.00207216329872}},{"name":"West","id":9032,"start":"2014/07/19 21:00:00","percent_done":"10","location":{"lat":39.73911275542341,"lng":-94.42090335479006}},{"name":"Jerde","id":5564,"start":"2014/07/19 21:00:00","percent_done":"10","location":{"lat":39.37252470632084,"lng":-93.67284330483525}},{"name":"Abshire","id":349,"start":"2014/07/19 21:00:00","percent_done":"10","location":{"lat":41.323881414858626,"lng":-88.67328955014236}},{"name":"Heidenreich","id":108,"start":"2014/07/19 21:00:00","percent_done":"10","location":{"lat":39.91461596582085,"lng":-88.9812609205488}},{"name":"Hane","id":5858,"start":"2014/07/19 21:00:00","percent_done":"10","location":{"lat":39.55199057389982,"lng":-87.2994783799164}},{"name":"Gerlach","id":762,"start":"2014/07/19 21:00:00","percent_done":"10","location":{"lat":40.165948514966296,"lng":-96.15780370603315}},{"name":"Runolfsson","id":316,"start":"2014/07/19 21:00:00","percent_done":"10","location":{"lat":40.58279833700508,"lng":-93.79364608149044}},{"name":"Waelchi","id":566,"start":"2014/07/19 21:00:00","percent_done":"10","location":{"lat":39.92555744308047,"lng":-94.73368973485194}},{"name":"Heathcote","id":7110,"start":"2014/07/19 21:00:00","percent_done":"10","location":{"lat":40.62753795566969,"lng":-90.78527391506358}},{"name":"Funk","id":7100,"start":"2014/07/19 21:00:00","percent_done":"10","location":{"lat":40.25244119637646,"lng":-99.96910146754234}},{"name":"Casper","id":3204,"start":"2014/07/19 21:00:00","percent_done":"10","location":{"lat":40.89285318730399,"lng":-93.81394301345571}},{"name":"Ruecker","id":9137,"start":"2014/07/19 21:00:00","percent_done":"10","location":{"lat":41.31379436226562,"lng":-96.79788592355325}},{"name":"Mann","id":1912,"start":"2014/07/19 21:00:00","percent_done":"10","location":{"lat":40.72680380186066,"lng":-90.42781722443178}},