[{"name":"Torphy","id":799,"start":"2014/07/19 21:00:00","percent_done":"10","location":{"lat":41.35210736412555,"lng":-97.53366494192741}},{"name":"Shields","id":2360,"start":"2014/07/19 21:00:00","percent_done":"10","location":{"lat":40.451994873257355,"lng":-89.45640836996026}},{"name":"Mayer","id":4354,"start":"2014/07/19 21:00:00","percent_done":"10","location":{"lat":41.503194659156726,"lng":-90.99094950724393}},{"name":"Stanton","id":9611,"start":"2014/07/19 21:00:00","percent_done":"10","location":{"lat":40.97556892307475,"lng":-90.3624896808993}},{"name":"Turner","id":3596,"start":"2014/07/19 21:00:00","percent_done":"10","location":{"lat":40.20452135023661,"lng":-95.09734918889589}},{"name":"Bashirian","id":4241,"start":"2014/07/19 21:00:00","percent_done":"10","location":{"lat":42.01733191674575,"lng":-95.84873617151752}},{"name":"Hudson","id":1018,"start":"2014/07/19 21:00:00","percent_done":"10","location":{"lat":39.528874329896645,"lng":-98.03486650567501}},{"name":"Wisoky","id":2758,"start":"2014/07/19 21:00:00","percent_done":"10","location":{"lat":41.72804188835435,"lng":-90.42572106970474}},{"name":"Hessel","id":3780,"start":"2014/07/19 21:00:00","percent_done":"10","location":{"lat":39.907681414764376,"lng":-99.26239054943434}},{"name":"Crist","id":9744,"start":"2014/07/19 21:00:00","percent_done":"10","location":{"lat":41.63503314056434,"lng":-97.64001599736511}},{"name":"Gutkowski","id":6966,"start":"2014/07/19 21:00:00","percent_done":"10","location":{"lat":40.24393256721087,"lng":-93.25571661083958}},{"name":"Mraz","id":9719,"start":"2014/07/19 21:00:00","percent_done":"10","location":{"lat":40.261997976945715,"lng":-92.70290135489776}},{"name":"Rohan","id":7696,"start":"2014/07/19 21:00:00","percent_done":"10","location":{"lat":40.87461219066754,"lng":-92.18249691361561}},{"name":"Brakus","id":9341,"start":"2014/07/19 21:00:00","percent_done":"10","location":{"lat":40.6794970151037,"lng":-90.07714139148592}},{"name":"Rosenbaum","id":8675,"start":"2014/07/19 21:00:00","percent_done":"10","location":{"lat":39.912084088334815,"lng":-96.19646029490977}},{"name":"Turner","id":6698,"start":"2014/07/19 21:00:00","percent_done":"10","location":{"lat":39.320643954118715,"lng":-98.0062355144415}},{"name":"McGlynn","id":2163,"start":"2014/07/19 21:00:00","percent_done":"10","location":{"lat":40.29450602401048,"lng":-88.28868712731636}},{"name":"Dietrich","id":8638,"start":"2014/07/19 21:00:00","percent_done":"10","location":{"lat":41.15970391375013,"lng":-91.06218211343511}},{"name":"Bradtke","id":2980,"start":"2014/07/19 21:00:00","percent_done":"10","location":{"lat":40.63150921268389,"lng":-93.54400973594747}},{"name":"Stiedemann","id":3772,"start":"2014/07/19 21:00:00","percent_done":"10","location":{"lat":39.73563156174496,"lng":-95.47331460928544}},{"name":"Stehr","id":6776,"start":"2014/07/19 21:00:00","percent_done":"10","location":{"lat":40.01573694860563,"lng":-98.85177458953112}},{"name":"Ward","id":517,"start":"2014/07/19 21:00:00","percent_done":"10","location":{"lat":39.88912237589248,"lng":-94.54087522686459}},{"name":"Wolff","id":9164,"start":"2014/07/19 21:00:00","percent_done":"10","location":{"lat":40.940179214719684,"lng":-89.9560190454591}},{"name":"Kohler","id":5291,"start":"2014/07/19 21:00:00","percent_done":"10","location":{"lat":41.43346209046431,"lng":-98.61502139959484}},{"name":"Rutherford","id":2442,"start":"2014/07/19 21:00:00","percent_done":"10","location":{"lat":41.47411247263663,"lng":-98.66811800808645}},{"name":"Marks","id":5137,"start":"2014/07/19 21:00:00","percent_done":"10","location":{"lat":39.61161479018629,"lng":-89.81591373998671}},{"name":"Kulas","id":9531,"start":"2014/07/19 21:00:00","percent_done":"10","location":{"lat":41.83237369814888,"lng":-90.43872379292733}},{"name":"Jacobi","id":6501,"start":"2014/07/19 21:00:00","percent_done":"10","location":{"lat":40.341832935018466,"lng":-98.65523113254457}},{"name":"Collier","id":9780,"start":"2014/07/19 21:00:00","percent_done":"10","location":{"lat":40.60635613757186,"lng":-89.60579987163655}},{"name":"Trantow","id":759,"start":"2014/07/19 21:00:00","percent_done":"10","location":{"lat":39.666897806478666,"lng":-88.91090537458658}},{"name":"Crona","id":2327,"start":"2014/07/19 21:00:00","percent_done":"10","location":{"lat":41.93183331787586,"lng":-99.0088359195739}},{"name":"Jones","id":270,"start":"2014/07/19 21:00:00","percent_done":"10","location":{"lat":40.100801438232885,"lng":-95.0786093479488}},{"name":"Boyle","id":2979,"start":"2014/07/19 21:00:00","percent_done":"10","location":{"lat":39.44756360854954,"lng":-97.16659117154776}},{"name":"Pfannerstill","id":4407,"start":"2014/07/19 21:00:00","percent_done":"10","location":{"lat":40.15071985977702,"lng":-98.54441539514809}},{"name":"Baumbach","id":1376,"start":"2014/07/19 21:00:00","percent_done":"10","location":{"lat":41.13728687972762,"lng":-88.47811633385717}},{"name":"Jenkins","id":21,"start":"2014/07/19 21:00:00","percent_done":"10","location":{"lat":39.83207799415104,"lng":-95.84683968862518}},{"name":"Rogahn","id":6999,"start":"2014/07/19 21:00:00","percent_done":"10","location":{"lat":41.92162878313102,"lng":-96.89295987589284}},{"name":"Heidenreich","id":8277,"start":"2014/07/19 21:00:00","percent_done":"10","location":{"lat":39.541422663396226,"lng":-92.83643348040059}},{"name":"Schuppe","id":3104,"start":"2014/07/19 21:00:00","percent_done":"10","location":{"lat":40.07590161324479,"lng":-93.92057678699493}},{"name":"Muller","id":942,"start":"2014/07/19 21:00:00","percent_done":"10","location":{"lat":40.16131698470563,"lng":-98.6576849610079}},{"name":"Thompson","id":6021,"start":"2014/07/19 21:00:00","percent_done":"10","location":{"lat":39.92293212413788,"lng":-94.478175125923}},{"name":"Schmitt","id":9664,"start":"2014/07/19 21:00:00","percent_done":"10","location":{"lat":40.192650912236424,"lng":-89.96597332567907}},{"name":"Keeling","id":8056,"start":"2014/07/19 21:00:00","percent_done":"10","location":{"lat":40.61047532469966,"lng":-88.39301066068}},{"name":"Konopelski","id":5038,"start":"2014/07/19 21:00:00","percent_done":"10","location":{"lat":41.40079932254739,"lng":-91.73012727512977}},{"name":"Greenholt","id":8735,"start":"2014/07/19 21:00:00","percent_done":"10","location":{"lat":39.65580278881826,"lng":-91.96539845983497}},{"name":"Boyer","id":1611,"start":"2014/07/19 21:00:00","percent_done":"10","location":{"lat":40.60146811269224,"lng":-98.76890626214444}},{"name":"Marvin","id":3157,"start":"2014/07/19 21:00:00","percent_done":"10","location":{"lat":39.75482332883403,"lng":-93.90989053612574}},{"name":"Feest","id":5884,"start":"2014/07/19 21:00:00","percent_done":"10","location":{"lat":39.349118046136574,"lng":-91.1868947810959}},{"name":"Romaguera","id":3780,"start":"2014/07/19 21:00:00","percent_done":"10","location":{"lat":39.890449753636496,"lng":-92.30956959715112}},{"name":"Klocko","id":9529,"start":"2014/07/19 21:00:00","percent_done":"10","location":{"lat":41.46455289530568,"lng":-90.42373064709827}},{"name":"Pfannerstill","id":6073,"start":"2014/07/19 21:00:00","percent_done":"10","location":{"lat":41.32490423964337,"lng":-87.9609547407832}},{"name":"Torp","id":7648,"start":"2014/07/19 21:00:00","percent_done":"10","location":{"lat":42.053474232694136,"lng":-90.63674197266809}},{"name":"Roob","id":8280,"start":"2014/07/19 21:00:00","percent_done":"10","location":{"lat":39.8668376439251,"lng":-88.0269478439819}},{"name":"Rippin","id":9557,"start":"2014/07/19 21:00:00","percent_done":"10","location":{"lat":41.9076645701658,"lng":-96.37774383313953}},{"name":"Eichmann","id":438,"start":"2014/07/19 21:00:00","percent_done":"10","location":{"lat":39.74257782092318,"lng":-93.78327888543717}},{"name":"Mueller","id":1339,"start":"2014/07/19 21:00:00","percent_done":"10","location":{"lat":41.03188981874846,"lng":-95.81882878546602}},{"name":"Romaguera","id":7403,"start":"2014/07/19 21:00:00","percent_done":"10","location":{"lat":40.94919208241627,"lng":-95.63543862584046}},{"name":"Hegmann","id":4115,"start":"2014/07/19 21:00:00","percent_done":"10","location":{"lat":40.78752863188274,"lng":-90.31115507162176}},{"name":"Sauer","id":2825,"start":"2014/07/19 21:00:00","percent_done":"10","location":{"lat":39.928727242769675,"lng":-91.09448638479225}},{"name":"Fadel","id":2413,"start":"2014/07/19 21:00:00","percent_done":"10","location":{"lat":39.83046884615906,"lng":-88.66133256456814}},{"name":"Goldner","id":5828,"start":"2014/07/19 21:00:00","percent_done":"10","location":{"lat":40.767813394684346,"lng":-88.99457707782275}},{"name":"Zemlak","id":396,"start":"2014/07/19 21:00:00","percent_done":"10","location":{"lat":40.52835536412895,"lng":-93.38525370755232}},{"name":"Gorczany","id":2562,"start":"2014/07/19 21:00:00","percent_done":"10","location":{"lat":40.285255308635534,"lng":-91.80509594632312}},{"name":"Haag","id":6206,"start":"2014/07/19 21:00:00","percent_done":"10","location":{"lat":40.50123066073284,"lng":-99.50755176451057}},{"name":"Denesik","id":6594,"start":"2014/07/19 21:00:00","percent_done":"10","location":{"lat":40.33685352643952,"lng":-88.75132844517938}},{"name":"Smith","id":8190,"start":"2014/07/19 21:00:00","percent_done":"10","location":{"lat":41.06875546500087,"lng":-91.50756727545522}},{"name":"Macejkovic","id":176,"start":"2014/07/19 21:00:00","percent_done":"10","location":{"lat":41.64965828964487,"lng":-96.1731890310999}},{"name":"Hilpert","id":4184,"start":"2014/07/19 21:00:00","percent_done":"10","location":{"lat":41.45773967788555,"lng":-90.77915296601131}},{"name":"Bashirian","id":523,"start":"2014/07/19 21:00:00","percent_done":"10","location":{"lat":39.391448681382464,"lng":-92.94513070411048}},{"name":"Baumbach","id":9662,"start":"2014/07/19 21:00:00","percent_done":"10","location":{"lat":41.6565488783177,"lng":-87.94287359775043}},{"name":"Jacobs","id":7928,"start":"2014/07/19 21:00:00","percent_done":"10","location":{"lat":40.85739923724905,"lng":-93.46906671687029}},{"name":"Bauch","id":2424,"start":"2014/07/19 21:00:00","percent_done":"10","location":{"lat":41.08568435502239,"lng":-99.71617195326834}},{"name":"Eichmann","id":2280,"start":"2014/07/19 21:00:00","percent_done":"10","location":{"lat":39.13680009557866,"lng":-98.66271780328825}},{"name":"Shanahan","id":1152,"start":"2014/07/19 21:00:00","percent_done":"10","location":{"lat":41.89657096415758,"lng":-99.83808551952242}},{"name":"Conn","id":9561,"start":"2014/07/19 21:00:00","percent_done":"10","location":{"lat":40.06428520418704,"lng":-90.42888683746568}},{"name":"Hettinger","id":1806,"start":"2014/07/19 21:00:00","percent_done":"10","location":{"lat":41.20936271841638,"lng":-99.92726763631217}},{"name":"Hoeger","id":423,"start":"2014/07/19 21:00:00","percent_done":"10","location":{"lat":39.536388968722896,"lng":-99.70849057766608}},{"name":"Schuster","id":81,"start":"2014/07/19 21:00:00","percent_done":"10","location":{"lat":41.20929689393379,"lng":-92.05306471968069}},{"name":"Jast","id":3975,"start":"2014/07/19 21:00:00","percent_done":"10","location":{"lat":40.960173547640444,"lng":-92.4167593118269}},{"name":"Bradtke","id":4691,"start":"2014/07/19 21:00:00","percent_done":"10","location":{"lat":39.61435404713266,"lng":-90.07541918861679}},{"name":"Kautzer","id":6329,"start":"2014/07/19 21:00:00","percent_done":"10","location":{"lat":40.708559404267,"lng":-95.42680047000758}},{"name":"Schiller","id":3733,"start":"2014/07/19 21:00:00","percent_done":"10","location":{"lat":39.662440550653265,"lng":-96.64130109329707}},{"name":"Russel","id":8983,"start":"2014/07/19 21:00:00","percent_done":"10","location":{"lat":39.20244203777984,"lng":-98.02095276759937}},{"name":"Stoltenberg","id":6992,"start":"2014/07/19 21:00:00","percent_done":"10","location":{"lat":39.95664372937754,"lng":-95.80441513531841}},{"name":"Tillman","id":7289,"start":"2014/07/19 21:00:00","percent_done":"10","location":{"lat":40.911466823797674,"lng":-96.11413678820244}},{"name":"Kulas","id":1229,"start":"2014/07/19 21:00:00","percent_done":"10","location":{"lat":41.66422461522743,"lng":-96.74322109753265}},{"name":"Berge","id":4732,"start":"2014/07/19 21:00:00","percent_done":"10","location":{"lat":41.339977879216896,"lng":-90.3476206489373}},{"name":"Lubowitz","id":6773,"start":"2014/07/19 21:00:00","percent_done":"10","location":{"lat":40.27230825359002,"lng":-87.88138518473133}},{"name":"Johnson","id":5059,"start":"2014/07/19 21:00:00","percent_done":"10","location":{"lat":40.629997748089956,"lng":-95.62073388546705}},{"name":"Littel","id":2037,"start":"2014/07/19 21:00:00","percent_done":"10","location":{"lat":39.196465492853896,"lng":-99.85340339844115}},{"name":"Casper","id":3338,"start":"2014/07/19 21:00:00","percent_done":"10","location":{"lat":42.059387509617956,"lng":-92.28714976566843}},{"name":"Swift","id":324,"start":"2014/07/19 21:00:00","percent_done":"10","location":{"lat":39.66089688069187,"lng":-94.01015616804361}},{"name":"Bartoletti","id":6945,"start":"2014/07/19 21:00:00","percent_done":"10","location":{"lat":41.166423925803976,"lng":-91.18728362177498}},{"name":"Rosenbaum","id":3846,"start":"2014/07/19 21:00:00","percent_done":"10","location":{"lat":41.668806572118775,"lng":-91.6321471998468}},{"name":"Stokes","id":9209,"start":"2014/07/19 21:00:00","percent_done":"10","location":{"lat":40.064321040315555,"lng":-92.11410570833831}},{"name":"Skiles","id":6896,"start":"2014/07/19 21:00:00","percent_done":"10","location":{"lat":40.53823820073158,"lng":-97.77289302987046}},{"name":"Medhurst","id":6767,"start":"2014/07/19 21:00:00","percent_done":"10","location":{"lat":40.74804510911927,"lng":-88.89790364112704}},{"name":"Schaden","id":3549,"start":"2014/07/19 21:00:00","percent_done":"10","location":{"lat":41.034950736816974,"lng":-89.75762595133855}},{"name":"Lesch","id":3845,"start":"2014/07/19 21:00:00","percent_done":"10","location":{"lat":40.510125138238074,"lng":-97.71974536534398}},{"name":"Blick","id":5749,"start":"2014/07/19 21:00:00","percent_done":"10","location":{"lat":39.16719086691737,"lng":-93.5724432225339}},{"name":"Weissnat","id":6946,"start":"2014/07/19 21:00:00","percent_done":"10","location":{"lat":41.292022763425486,"lng":-87.86209591934457}},{"name":"Dicki","id":3921,"start":"2014/07/19 21:00:00","percent_done":"10","location":{"lat":39.15539152212441,"lng":-91.92201411179266}},{"name":"Donnelly","id":5690,"start":"2014/07/19 21:00:00","percent_done":"10","location":{"lat":40.879711023904385,"lng":-95.32899731714278}},{"name":"Buckridge","id":5512,"start":"2014/07/19 21:00:00","percent_done":"10","location":{"lat":39.57751024202444,"lng":-92.95070567624643}},{"name":"Adams","id":8991,"start":"2014/07/19 21:00:00","percent_done":"10","location":{"lat":40.40610195011832,"lng":-87.80692528202198}},{"name":"Swift","id":6492,"start":"2014/07/19 21:00:00","percent_done":"10","location":{"lat":39.31369211887941,"lng":-96.91405301322229}},{"name":"Flatley","id":1238,"start":"2014/07/19 21:00:00","percent_done":"10","location":{"lat":40.57073384257965,"lng":-93.45401917947456}},{"name":"Littel","id":8301,"start":"2014/07/19 21:00:00","percent_done":"10","location":{"lat":41.75010151662864,"lng":-97.54447141117416}},{"name":"Zboncak","id":3270,"start":"2014/07/19 21:00:00","percent_done":"10","location":{"lat":41.43693813136779,"lng":-99.45488215251825}},{"name":"Morissette","id":9189,"start":"2014/07/19 21:00:00","percent_done":"10","location":{"lat":40.93786003151909,"lng":-92.54238186231814}},{"name":"Shanahan","id":9409,"start":"2014/07/19 21:00:00","percent_done":"10","location":{"lat":40.814144367259,"lng":-88.56139138727448}},{"name":"Wolf","id":2061,"start":"2014/07/19 21:00:00","percent_done":"10","location":{"lat":40.555923137022184,"lng":-87.53370144790969}},{"name":"Crona","id":1414,"start":"2014/07/19 21:00:00","percent_done":"10","location":{"lat":40.06747447643429,"lng":-87.54866271549835}},{"name":"Hills","id":1954,"start":"2014/07/19 21:00:00","percent_done":"10","location":{"lat":41.89273654171266,"lng":-90.12176820696331}},{"name":"GuÂªann","id":3962,"start":"2014/07/19 21:00:00","percent_done":"10","location":{"lat":40.725568620162086,"lng":-88.24224721421487}},{"name":"Cole","id":4269,"start":"2014/07/19 21:00:00","percent_done":"10","location":{"lat":41.39747091419995,"lng":-89.56649259980767}},{"name":"Ziemann","id":9342,"start":"2014/07/19 21:00:00","percent_done":"10","location":{"lat":40.443519541202114,"lng":-97.41589386099949}},{"name":"Spinka","id":1485,"start":"2014/07/19 21:00:00","percent_done":"10","location":{"lat":40.71862458637916,"lng":-93.26219428018666}},{"name":"Grady","id":864,"start":"2014/07/19 21:00:00","percent_done":"10","location":{"lat":39.90388017417863,"lng":-99.07292856569401}},{"name":"Rippin","id":9974,"start":"2014/07/19 21:00:00","percent_done":"10","location":{"lat":39.267506869183855,"lng":-97.46793135944753}},{"name":"Heaney","id":7046,"start":"2014/07/19 21:00:00","percent_done":"10","location":{"lat":39.470445667067544,"lng":-92.21591033404692}},{"name":"Bailey","id":5334,"start":"2014/07/19 21:00:00","percent_done":"10","location":{"lat":40.502469612192364,"lng":-95.77745358380488}},{"name":"Boehm","id":3417,"start":"2014/07/19 21:00:00","percent_done":"10","location":{"lat":39.89945212299936,"lng":-87.30718659111298}},{"name":"Rogahn","id":7258,"start":"2014/07/19 21:00:00","percent_done":"10","location":{"lat":39.96880509834737,"lng":-99.88581077465787}},{"name":"Cole","id":7170,"start":"2014/07/19 21:00:00","percent_done":"10","location":{"lat":40.29918550504372,"lng":-99.44835540363565}},{"name":"Wehner","id":9000,"start":"2014/07/19 21:00:00","percent_done":"10","location":{"lat":40.9355818183627,"lng":-93.238258861145}},{"name":"Weimann","id":5395,"start":"2014/07/19 21:00:00","percent_done":"10","location":{"lat":40.41985890166834,"lng":-89.4792895975057}},{"name":"Kautzer","id":8748,"start":"2014/07/19 21:00:00","percent_done":"10","location":{"lat":41.79696303573437,"lng":-95.3477658339776}},{"name":"Jast","id":176,"start":"2014/07/19 21:00:00","percent_done":"10","location":{"lat":39.77670179135166,"lng":-96.44125107829458}},{"name":"Willms","id":42,"start":"2014/07/19 21:00:00","percent_done":"10","location":{"lat":41.09611473246478,"lng":-97.81728243236431}},{"name":"Brakus","id":1006,"start":"2014/07/19 21:00:00","percent_done":"10","location":{"lat":41.37057563257404,"lng":-92.0858108642511}},{"name":"Boehm","id":3001,"start":"2014/07/19 21:00:00","percent_done":"10","location":{"lat":40.65177915724926,"lng":-94.8613864110317}},{"name":"Johns","id":8027,"start":"2014/07/19 21:00:00","percent_done":"10","location":{"lat":40.32246280242689,"lng":-90.58074823990464}},{"name":"Treutel","id":9018,"start":"2014/07/19 21:00:00","percent_done":"10","location":{"lat":40.87980591612868,"lng":-87.16074058497324}},{"name":"Kertzmann","id":4521,"start":"2014/07/19 21:00:00","percent_done":"10","location":{"lat":40.65178170534782,"lng":-99.03704390665516}},{"name":"Cole","id":7632,"start":"2014/07/19 21:00:00","percent_done":"10","location":{"lat":40.176356971636416,"lng":-99.73828733726404}},{"name":"Mann","id":6695,"start":"2014/07/19 21:00:00","percent_done":"10","location":{"lat":41.145261775143446,"lng":-89.54294585194438}},{"name":"Conn","id":1832,"start":"2014/07/19 21:00:00","percent_done":"10","location":{"lat":41.86709241210483,"lng":-94.58333906498737}},{"name":"Batz","id":2148,"start":"2014/07/19 21:00:00","percent_done":"10","location":{"lat":41.65178545531817,"lng":-97.34296065419912}},{"name":"Smith","id":3518,"start":"2014/07/19 21:00:00","percent_done":"10","location":{"lat":39.482528276881204,"lng":-96.7344598813448}},{"name":"Hahn","id":3309,"start":"2014/07/19 21:00:00","percent_done":"10","location":{"lat":40.334047253383325,"lng":-89.26582987294532}},{"name":"Morissette","id":9604,"start":"2014/07/19 21:00:00","percent_done":"10","location":{"lat":39.83988948087208,"lng":-96.05177618809975}},{"name":"Becker","id":860,"start":"2014/07/19 21:00:00","percent_done":"10","location":{"lat":40.42556099933572,"lng":-90.45474959760904}},{"name":"Doyle","id":2924,"start":"2014/07/19 21:00:00","percent_done":"10","location":{"lat":39.66055902852677,"lng":-90.73493383605964}},{"name":"Batz","id":3391,"start":"2014/07/19 21:00:00","percent_done":"10","location":{"lat":39.70922599490732,"lng":-94.1589398946613}},{"name":"Crist","id":1438,"start":"2014/07/19 21:00:00","percent_done":"10","location":{"lat":40.51025239368901,"lng":-87.47158739566802}},{"name":"Cronin","id":7707,"start":"2014/07/19 21:00:00","percent_done":"10","location":{"lat":39.416135277040304,"lng":-91.70511529352515}},{"name":"Upton","id":5235,"start":"2014/07/19 21:00:00","percent_done":"10","location":{"lat":41.79017531606369,"lng":-97.86750827999785}},{"name":"Cremin","id":7724,"start":"2014/07/19 21:00:00","percent_done":"10","location":{"lat":39.540515223890544,"lng":-88.76635065432637}},{"name":"Crooks","id":4827,"start":"2014/07/19 21:00:00","percent_done":"10","location":{"lat":41.58980995104648,"lng":-87.83223116272129}},{"name":"Hand","id":220,"start":"2014/07/19 21:00:00","percent_done":"10","location":{"lat":40.89073979170062,"lng":-87.74621929032728}},{"name":"Friesen","id":1747,"start":"2014/07/19 21:00:00","percent_done":"10","location":{"lat":41.53600432970561,"lng":-91.68131777239032}},{"name":"Steuber","id":472,"start":"2014/07/19 21:00:00","percent_done":"10","location":{"lat":40.53165090563707,"lng":-98.92333711371757}},{"name":"Rutherford","id":1917,"start":"2014/07/19 21:00:00","percent_done":"10","location":{"lat":39.12934462809935,"lng":-95.42187120476737}},{"name":"McClure","id":6313,"start":"2014/07/19 21:00:00","percent_done":"10","location":{"lat":41.60663205632009,"lng":-98.07696430701762}},{"name":"Nitzsche","id":6487,"start":"2014/07/19 21:00:00","percent_done":"10","location":{"lat":39.14465682152659,"lng":-89.67042323960922}},{"name":"Barrows","id":8174,"start":"2014/07/19 21:00:00","percent_done":"10","location":{"lat":41.58234381270595,"lng":-90.7810118802823}},{"name":"Schamberger","id":3563,"start":"2014/07/19 21:00:00","percent_done":"10","location":{"lat":41.32190108126961,"lng":-94.82044075140729}},{"name":"Runolfsdottir","id":1715,"start":"2014/07/19 21:00:00","percent_done":"10","location":{"lat":39.54265993777663,"lng":-90.66814554147422}},{"name":"Zieme","id":923,"start":"2014/07/19 21:00:00","percent_done":"10","location":{"lat":41.958549284748734,"lng":-92.70640584863722}},{"name":"Gulgowski","id":9598,"start":"2014/07/19 21:00:00","percent_done":"10","location":{"lat":40.99755445253104,"lng":-88.2186998609919}},{"name":"Murazik","id":4096,"start":"2014/07/19 21:00:00","percent_done":"10","location":{"lat":41.535862274607645,"lng":-87.40955363530665}},{"name":"Corkery","id":7932,"start":"2014/07/19 21:00:00","percent_done":"10","location":{"lat":39.78266714853235,"lng":-89.77828847514465}},{"name":"Buckridge","id":8666,"start":"2014/07/19 21:00:00","percent_done":"10","location":{"lat":40.81277080872096,"lng":-98.36313794380985}},{"name":"Mohr","id":1780,"start":"2014/07/19 21:00:00","percent_done":"10","location":{"lat":40.84125699372962,"lng":-93.87411262923851}},{"name":"King","id":3975,"start":"2014/07/19 21:00:00","percent_done":"10","location":{"lat":41.34736481066793,"lng":-87.74543134812265}},{"name":"Swift","id":9403,"start":"2014/07/19 21:00:00","percent_done":"10","location":{"lat":39.84095011642203,"lng":-89.56712783095426}},{"name":"Kirlin","id":6486,"start":"2014/07/19 21:00:00","percent_done":"10","location":{"lat":41.01193853178993,"lng":-93.34322622176259}},{"name":"Effertz","id":6807,"start":"2014/07/19 21:00:00","percent_done":"10","location":{"lat":40.6550977489911,"lng":-92.37528987685218}},{"name":"McGlynn","id":5164,"start":"2014/07/19 21:00:00","percent_done":"10","location":{"lat":41.72605397962034,"lng":-92.34141312018036}},{"name":"Brakus","id":1195,"start":"2014/07/19 21:00:00","percent_done":"10","location":{"lat":41.35832332274877,"lng":-88.16945219892077}},{"name":"Hintz","id":6623,"start":"2014/07/19 21:00:00","percent_done":"10","location":{"lat":41.33307012370788,"lng":-90.92141442038118}},{"name":"Erdman","id":2072,"start":"2014/07/19 21:00:00","percent_done":"10","location":{"lat":40.35892887148075,"lng":-92.22286457279696}},{"name":"McGlynn","id":3388,"start":"2014/07/19 21:00:00","percent_done":"10","location":{"lat":41.71858669295907,"lng":-97.96295993439853}},{"name":"Torphy","id":2026,"start":"2014/07/19 21:00:00","percent_done":"10","location":{"lat":39.6030887958128,"lng":-90.80591223658993}},{"name":"Marvin","id":5013,"start":"2014/07/19 21:00:00","percent_done":"10","location":{"lat":41.60863581872545,"lng":-99.2803929018788}},{"name":"Jakubowski","id":8225,"start":"2014/07/19 21:00:00","percent_done":"10","location":{"lat":41.51699034906924,"lng":-95.05585311506874}},{"name":"Feeney","id":9800,"start":"2014/07/19 21:00:00","percent_done":"10","location":{"lat":41.640681005921216,"lng":-94.84344585975632}},{"name":"Schaefer","id":301,"start":"2014/07/19 21:00:00","percent_done":"10","location":{"lat":40.32732025780715,"lng":-87.43701541367918}},{"name":"Zulauf","id":7798,"start":"2014/07/19 21:00:00","percent_done":"10","location":{"lat":40.44708411246538,"lng":-97.52173600266687}},{"name":"Swift","id":8497,"start":"2014/07/19 21:00:00","percent_done":"10","location":{"lat":40.45444483929314,"lng":-88.79063361943699}},{"name":"Kunde","id":8161,"start":"2014/07/19 21:00:00","percent_done":"10","location":{"lat":42.03747560330667,"lng":-92.55007816003635}},{"name":"Klein","id":908,"start":"2014/07/19 21:00:00","percent_done":"10","location":{"lat":41.922290526703094,"lng":-97.64929510783404}},{"name":"Rippin","id":5860,"start":"2014/07/19 21:00:00","percent_done":"10","location":{"lat":39.606712316302584,"lng":-92.233875929052}},{"name":"Shields","id":2003,"start":"2014/07/19 21:00:00","percent_done":"10","location":{"lat":41.90022751004435,"lng":-96.87373331063426}},{"name":"Pacocha","id":7156,"start":"2014/07/19 21:00:00","percent_done":"10","location":{"lat":40.47032014154829,"lng":-91.42200888707302}},{"name":"Lindgren","id":4241,"start":"2014/07/19 21:00:00","percent_done":"10","location":{"lat":42.08621229385026,"lng":-94.06965249371714}},{"name":"Wolf","id":1551,"start":"2014/07/19 21:00:00","percent_done":"10","location":{"lat":40.857956077111886,"lng":-95.65464500538073}},{"name":"Hoppe","id":3669,"start":"2014/07/19 21:00:00","percent_done":"10","location":{"lat":39.630271018622445,"lng":-99.47952135968953}},{"name":"Crooks","id":907,"start":"2014/07/19 21:00:00","percent_done":"10","location":{"lat":40.43205153862946,"lng":-90.02505366634577}},{"name":"D'Amore","id":7964,"start":"2014/07/19 21:00:00","percent_done":"10","location":{"lat":40.699524481687696,"lng":-99.66950313551351}},{"name":"Stracke","id":540,"start":"2014/07/19 21:00:00","percent_done":"10","location":{"lat":40.349435018748046,"lng":-97.16450726022012}},{"name":"Spinka","id":8831,"start":"2014/07/19 21:00:00","percent_done":"10","location":{"lat":40.55566194993444,"lng":-89.70823304532095}},{"name":"Bauch","id":8509,"start":"2014/07/19 21:00:00","percent_done":"10","location":{"lat":40.394238059083,"lng":-91.48911757734604}},{"name":"Erdman","id":1658,"start":"2014/07/19 21:00:00","percent_done":"10","location":{"lat":41.103102206159384,"lng":-88.54679855066351}},{"name":"Crooks","id":3035,"start":"2014/07/19 21:00:00","percent_done":"10","location":{"lat":40.20403160611168,"lng":-94.92805232610553}},{"name":"Glover","id":2074,"start":"2014/07/19 21:00:00","percent_done":"10","location":{"lat":40.94815922868438,"lng":-90.14753125831484}},{"name":"Koelpin","id":5269,"start":"2014/07/19 21:00:00","percent_done":"10","location":{"lat":40.278535917541014,"lng":-98.39074699105694}},{"name":"Wisoky","id":6885,"start":"2014/07/19 21:00:00","percent_done":"10","location":{"lat":41.88823083639145,"lng":-97.06329289348795}},{"name":"Auer","id":1885,"start":"2014/07/19 21:00:00","percent_done":"10","location":{"lat":40.04895285088569,"lng":-97.77365793511271}},{"name":"Rice","id":3118,"start":"2014/07/19 21:00:00","percent_done":"10","location":{"lat":41.26067137569189,"lng":-95.60949266203679}},{"name":"Beier","id":5793,"start":"2014/07/19 21:00:00","percent_done":"10","location":{"lat":41.59251134763472,"lng":-93.13368575009517}},{"name":"Rosenbaum","id":8202,"start":"2014/07/19 21:00:00","percent_done":"10","location":{"lat":39.20278464877047,"lng":-88.04838717440143}},{"name":"Raynor","id":7187,"start":"2014/07/19 21:00:00","percent_done":"10","location":{"lat":40.984062891593204,"lng":-91.30451274537481}},{"name":"Ledner","id":5628,"start":"2014/07/19 21:00:00","percent_done":"10","location":{"lat":41.03962125689723,"lng":-98.35679379561915}},{"name":"Yost","id":5876,"start":"2014/07/19 21:00:00","percent_done":"10","location":{"lat":39.736128102894874,"lng":-87.13975076135247}},{"name":"Littel","id":3676,"start":"2014/07/19 21:00:00","percent_done":"10","location":{"lat":40.42464235532098,"lng":-96.98156066881492}},{"name":"Nader","id":630,"start":"2014/07/19 21:00:00","percent_done":"10","location":{"lat":41.049503547279166,"lng":-91.01370008303783}},{"name":"Nienow","id":9089,"start":"2014/07/19 21:00:00","percent_done":"10","location":{"lat":41.64841928789392,"lng":-89.8183845245745}},{"name":"Dickinson","id":7565,"start":"2014/07/19 21:00:00","percent_done":"10","location":{"lat":41.59870524299331,"lng":-90.01852038563229}},{"name":"Homenick","id":3448,"start":"2014/07/19 21:00:00","percent_done":"10","location":{"lat":39.99966033049859,"lng":-99.37167921257205}},{"name":"Eichmann","id":303,"start":"2014/07/19 21:00:00","percent_done":"10","location":{"lat":41.85715532503091,"lng":-94.12440626220777}},{"name":"Bins","id":8212,"start":"2014/07/19 21:00:00","percent_done":"10","location":{"lat":41.364883825788276,"lng":-88.1403193917591}},{"name":"Ledner","id":6449,"start":"2014/07/19 21:00:00","percent_done":"10","location":{"lat":39.30167288184166,"lng":-91.69338737907819}},{"name":"McGlynn","id":6812,"start":"2014/07/19 21:00:00","percent_done":"10","location":{"lat":40.52680941009894,"lng":-93.09570257542654}},{"name":"Becker","id":606,"start":"2014/07/19 21:00:00","percent_done":"10","location":{"lat":41.86569278165698,"lng":-99.99244332234375}},{"name":"Wisoky","id":8379,"start":"2014/07/19 21:00:00","percent_done":"10","location":{"lat":40.47515368964523,"lng":-99.3982151841279}},{"name":"Walker","id":4506,"start":"2014/07/19 21:00:00","percent_done":"10","location":{"lat":41.05496914465912,"lng":-98.38400730993598}},{"name":"Upton","id":7607,"start":"2014/07/19 21:00:00","percent_done":"10","location":{"lat":41.50785171231255,"lng":-89.42065717759542}},{"name":"Powlowski","id":2150,"start":"2014/07/19 21:00:00","percent_done":"10","location":{"lat":40.58533594282344,"lng":-99.41047616014257}},{"name":"Kunze","id":608,"start":"2014/07/19 21:00:00","percent_done":"10","location":{"lat":40.76572318202816,"lng":-96.61553860190324}},{"name":"Durgan","id":5087,"start":"2014/07/19 21:00:00","percent_done":"10","location":{"lat":40.03578844051808,"lng":-90.48686342281289}},{"name":"Gleason","id":9959,"start":"2014/07/19 21:00:00","percent_done":"10","location":{"lat":41.525795170245694,"lng":-92.3472858778201}},{"name":"Herman","id":7341,"start":"2014/07/19 21:00:00","percent_done":"10","location":{"lat":41.67989615970291,"lng":-94.54831276359036}},{"name":"Hammes","id":2992,"start":"2014/07/19 21:00:00","percent_done":"10","location":{"lat":41.107091723149644,"lng":-87.84884103960357}},{"name":"Gerhold","id":7606,"start":"2014/07/19 21:00:00","percent_done":"10","location":{"lat":40.96443149019033,"lng":-91.92533795409835}},{"name":"Jaskolski","id":5683,"start":"2014/07/19 21:00:00","percent_done":"10","location":{"lat":41.23278074376285,"lng":-96.37180518815293}},{"name":"Ziemann","id":214,"start":"2014/07/19 21:00:00","percent_done":"10","location":{"lat":42.03798667169176,"lng":-98.69660285036079}},{"name":"Rempel","id":4885,"start":"2014/07/19 21:00:00","percent_done":"10","location":{"lat":39.68804934145883,"lng":-97.39781569936312}},{"name":"Will","id":5361,"start":"2014/07/19 21:00:00","percent_done":"10","location":{"lat":39.82871665819548,"lng":-92.27272211355157}},{"name":"Weimann","id":1329,"start":"2014/07/19 21:00:00","percent_done":"10","location":{"lat":41.135848155384885,"lng":-93.09549846025183}},{"name":"Bergstrom","id":2320,"start":"2014/07/19 21:00:00","percent_done":"10","location":{"lat":41.541580946790056,"lng":-92.1034278447274}},{"name":"Koss","id":8764,"start":"2014/07/19 21:00:00","percent_done":"10","location":{"lat":39.66184802763164,"lng":-97.00078122285194}},{"name":"Jacobi","id":5979,"start":"2014/07/19 21:00:00","percent_done":"10","location":{"lat":41.19112040442415,"lng":-91.52414054623804}},{"name":"Steuber","id":9501,"start":"2014/07/19 21:00:00","percent_done":"10","location":{"lat":41.16711112870835,"lng":-93.57860179166309}},{"name":"Johnston","id":3982,"start":"2014/07/19 21:00:00","percent_done":"10","location":{"lat":41.84741866393015,"lng":-89.48801096286624}},{"name":"Tromp","id":3482,"start":"2014/07/19 21:00:00","percent_done":"10","location":{"lat":41.17514219614677,"lng":-90.53344026524573}},{"name":"Krajcik","id":2434,"start":"2014/07/19 21:00:00","percent_done":"10","location":{"lat":40.98494714605622,"lng":-95.26370349214412}},{"name":"Baumbach","id":6139,"start":"2014/07/19 21:00:00","percent_done":"10","location":{"lat":39.696998259425165,"lng":-92.38993468056432}},{"name":"Keeling","id":2117,"start":"2014/07/19 21:00:00","percent_done":"10","location":{"lat":40.59741900106892,"lng":-91.60292569538578}},{"name":"Cartwright","id":4967,"start":"2014/07/19 21:00:00","percent_done":"10","location":{"lat":40.66487489747815,"lng":-93.1475835611578}},{"name":"Johnston","id":1663,"start":"2014/07/19 21:00:00","percent_done":"10","location":{"lat":40.69296167921275,"lng":-89.67693591993302}},{"name":"O'Conner","id":2855,"start":"2014/07/19 21:00:00","percent_done":"10","location":{"lat":39.9510585767217,"lng":-93.18425849606282}},{"name":"Adams","id":1859,"start":"2014/07/19 21:00:00","percent_done":"10","location":{"lat":41.55846091583371,"lng":-97.11171002327464}},{"name":"Wilderman","id":9201,"start":"2014/07/19 21:00:00","percent_done":"10","location":{"lat":40.181286211730914,"lng":-88.77588699725456}},{"name":"Huels","id":5784,"start":"2014/07/19 21:00:00","percent_done":"10","location":{"lat":39.476332110725345,"lng":-93.15847666645422}},{"name":"Steuber","id":4866,"start":"2014/07/19 21:00:00","percent_done":"10","location":{"lat":39.889639606373386,"lng":-97.89507784568704}},{"name":"Kunze","id":6341,"start":"2014/07/19 21:00:00","percent_done":"10","location":{"lat":40.35740195414983,"lng":-96.90512182414531}},{"name":"Conroy","id":6903,"start":"2014/07/19 21:00:00","percent_done":"10","location":{"lat":40.410544698266314,"lng":-89.45947169573046}},{"name":"Little","id":1845,"start":"2014/07/19 21:00:00","percent_done":"10","location":{"lat":41.171338165784256,"lng":-91.71428351723588}},{"name":"Pfeffer","id":9488,"start":"2014/07/19 21:00:00","percent_done":"10","location":{"lat":39.27277393070981,"lng":-89.66485197832807}},{"name":"Feeney","id":276,"start":"2014/07/19 21:00:00","percent_done":"10","location":{"lat":41.38050087951124,"lng":-90.81999276638962}},{"name":"Hansen","id":6229,"start":"2014/07/19 21:00:00","percent_done":"10","location":{"lat":40.89766887007281,"lng":-93.06748838946223}},{"name":"Grant","id":6002,"start":"2014/07/19 21:00:00","percent_done":"10","location":{"lat":41.121903252229096,"lng":-90.62787131955847}},{"name":"Volkman","id":8288,"start":"2014/07/19 21:00:00","percent_done":"10","location":{"lat":40.65840081255883,"lng":-90.26654548165388}},{"name":"Renner","id":1099,"start":"2014/07/19 21:00:00","percent_done":"10","location":{"lat":40.88862271923572,"lng":-96.67065156963653}},{"name":"Bode","id":6499,"start":"2014/07/19 21:00:00","percent_done":"10","location":{"lat":40.50068194293417,"lng":-90.58661879403516}},{"name":"Schiller","id":7142,"start":"2014/07/19 21:00:00","percent_done":"10","location":{"lat":40.64011187562719,"lng":-88.40418682913295}},{"name":"Nitzsche","id":7201,"start":"2014/07/19 21:00:00","percent_done":"10","location":{"lat":39.53115649931133,"lng":-99.51191983711905}},{"name":"Osinski","id":7636,"start":"2014/07/19 21:00:00","percent_done":"10","location":{"lat":40.048751660762356,"lng":-94.73510498707182}},{"name":"Moore","id":1249,"start":"2014/07/19 21:00:00","percent_done":"10","location":{"lat":39.22296440755017,"lng":-92.27506013368256}},{"name":"Kertzmann","id":3632,"start":"2014/07/19 21:00:00","percent_done":"10","location":{"lat":39.295607096888126,"lng":-97.74137977594509}},{"name":"Jones","id":6140,"start":"2014/07/19 21:00:00","percent_done":"10","location":{"lat":39.31655318653211,"lng":-92.0488405380398}},{"name":"Okuneva","id":7615,"start":"2014/07/19 21:00:00","percent_done":"10","location":{"lat":39.44160987986252,"lng":-90.19823401435278}},{"name":"Blanda","id":2713,"start":"2014/07/19 21:00:00","percent_done":"10","location":{"lat":40.9953306847252,"lng":-91.92463934179395}},{"name":"Hettinger","id":9311,"start":"2014/07/19 21:00:00","percent_done":"10","location":{"lat":41.45919973766431,"lng":-96.16012748810462}},{"name":"Lemke","id":7250,"start":"2014/07/19 21:00:00","percent_done":"10","location":{"lat":39.83001248855144,"lng":-89.54276538514532}},{"name":"Kuvalis","id":454,"start":"2014/07/19 21:00:00","percent_done":"10","location":{"lat":39.69817757434212,"lng":-96.29018894131295}},{"name":"Kuhic","id":3721,"start":"2014/07/19 21:00:00","percent_done":"10","location":{"lat":39.46379434959963,"lng":-89.05217959024012}},{"name":"Schmidt","id":2141,"start":"2014/07/19 21:00:00","percent_done":"10","location":{"lat":39.88333104518242,"lng":-97.94712157933972}},{"name":"Douglas","id":481,"start":"2014/07/19 21:00:00","percent_done":"10","location":{"lat":41.20009146248922,"lng":-88.00686430432833}},{"name":"O'Hara","id":2447,"start":"2014/07/19 21:00:00","percent_done":"10","location":{"lat":39.60492185098119,"lng":-92.94678363567218}},{"name":"Waelchi","id":9069,"start":"2014/07/19 21:00:00","percent_done":"10","location":{"lat":39.398475769348444,"lng":-99.77897805571556}},{"name":"McCullough","id":4678,"start":"2014/07/19 21:00:00","percent_done":"10","location":{"lat":39.173692850302906,"lng":-94.23610455649904}},{"name":"Kunze","id":5071,"start":"2014/07/19 21:00:00","percent_done":"10","location":{"lat":39.31232520858757,"lng":-94.37593427500687}},{"name":"Corwin","id":3460,"start":"2014/07/19 21:00:00","percent_done":"10","location":{"lat":40.51482920688577,"lng":-96.05117231761105}},{"name":"Stoltenberg","id":1046,"start":"2014/07/19 21:00:00","percent_done":"10","location":{"lat":41.0416901152581,"lng":-88.68247098885476}},{"name":"Schmidt","id":1473,"start":"2014/07/19 21:00:00","percent_done":"10","location":{"lat":41.157410469278695,"lng":-97.3856592175085}},{"name":"Schoen","id":3568,"start":"2014/07/19 21:00:00","percent_done":"10","location":{"lat":40.820893335994334,"lng":-99.27659250530414}},{"name":"Haley","id":8872,"start":"2014/07/19 21:00:00","percent_done":"10","location":{"lat":41.379673663899304,"lng":-91.87897389256395}},{"name":"Rosenbaum","id":2868,"start":"2014/07/19 21:00:00","percent_done":"10","location":{"lat":40.25855232253671,"lng":-89.24022211753763}},{"name":"Zboncak","id":8110,"start":"2014/07/19 21:00:00","percent_done":"10","location":{"lat":39.63179641044699,"lng":-96.14110604291781}},{"name":"Nolan","id":2293,"start":"2014/07/19 21:00:00","percent_done":"10","location":{"lat":39.29658082537353,"lng":-91.75023245639167}},{"name":"Leuschke","id":4517,"start":"2014/07/19 21:00:00","percent_done":"10","location":{"lat":39.495665761083366,"lng":-90.13882530843838}},{"name":"Dooley","id":6335,"start":"2014/07/19 21:00:00","percent_done":"10","location":{"lat":41.811745930137114,"lng":-96.16096429494209}},{"name":"Bartell","id":3382,"start":"2014/07/19 21:00:00","percent_done":"10","location":{"lat":39.81401669015177,"lng":-99.83546060430817}},{"name":"Fahey","id":3996,"start":"2014/07/19 21:00:00","percent_done":"10","location":{"lat":40.28413201207295,"lng":-99.95617871838621}},{"name":"Schimmel","id":5352,"start":"2014/07/19 21:00:00","percent_done":"10","location":{"lat":40.086354308202864,"lng":-99.45037398757412}},{"name":"Sporer","id":2222,"start":"2014/07/19 21:00:00","percent_done":"10","location":{"lat":39.46021143733524,"lng":-89.06309025399386}},{"name":"Mayer","id":5878,"start":"2014/07/19 21:00:00","percent_done":"10","location":{"lat":39.73147363974713,"lng":-96.23263908005319}},{"name":"Veum","id":4257,"start":"2014/07/19 21:00:00","percent_done":"10","location":{"lat":41.3420944145415,"lng":-87.91249990011565}},{"name":"Ratke","id":4413,"start":"2014/07/19 21:00:00","percent_done":"10","location":{"lat":40.631783770304175,"lng":-87.99929751120507}},{"name":"Spinka","id":7962,"start":"2014/07/19 21:00:00","percent_done":"10","location":{"lat":41.26746024019085,"lng":-97.19757920331321}},{"name":"Effertz","id":184,"start":"2014/07/19 21:00:00","percent_done":"10","location":{"lat":41.31759685035795,"lng":-89.06046902844682}},{"name":"Jacobson","id":9323,"start":"2014/07/19 21:00:00","percent_done":"10","location":{"lat":40.10963627710007,"lng":-96.2432118078228}},{"name":"Haag","id":9622,"start":"2014/07/19 21:00:00","percent_done":"10","location":{"lat":39.13960780403577,"lng":-91.46362177412956}},{"name":"Witting","id":933,"start":"2014/07/19 21:00:00","percent_done":"10","location":{"lat":41.264028564002366,"lng":-96.70263619595207}},{"name":"O'Kon","id":5260,"start":"2014/07/19 21:00:00","percent_done":"10","location":{"lat":39.29795277249068,"lng":-94.5351748181507}},{"name":"Runolfsson","id":8442,"start":"2014/07/19 21:00:00","percent_done":"10","location":{"lat":41.325979959825055,"lng":-99.93912351774051}},{"name":"Corkery","id":8340,"start":"2014/07/19 21:00:00","percent_done":"10","location":{"lat":40.670853244513275,"lng":-87.30097433263435}},{"name":"Jast","id":4562,"start":"2014/07/19 21:00:00","percent_done":"10","location":{"lat":41.89194492613897,"lng":-92.63510675579309}},{"name":"Cassin","id":8443,"start":"2014/07/19 21:00:00","percent_done":"10","location":{"lat":39.39005077551119,"lng":-95.91846317555755}},{"name":"Sauer","id":3221,"start":"2014/07/19 21:00:00","percent_done":"10","location":{"lat":39.754178383294494,"lng":-88.84384526140056}},{"name":"Douglas","id":28,"start":"2014/07/19 21:00:00","percent_done":"10","location":{"lat":41.8520943605341,"lng":-88.93093147771432}},{"name":"Windler","id":7152,"start":"2014/07/19 21:00:00","percent_done":"10","location":{"lat":39.964639094797896,"lng":-99.52956171603873}},{"name":"Keeling","id":1555,"start":"2014/07/19 21:00:00","percent_done":"10","location":{"lat":41.43440508390777,"lng":-99.91104184803552}},{"name":"Prohaska","id":5273,"start":"2014/07/19 21:00:00","percent_done":"10","location":{"lat":40.253074382804336,"lng":-92.61560503942891}},{"name":"Kshlerin","id":1503,"start":"2014/07/19 21:00:00","percent_done":"10","location":{"lat":41.79585481262766,"lng":-95.50885706455446}},{"name":"Wilkinson","id":3073,"start":"2014/07/19 21:00:00","percent_done":"10","location":{"lat":40.4764354782179,"lng":-94.06078135329298}},{"name":"Ward","id":7907,"start":"2014/07/19 21:00:00","percent_done":"10","location":{"lat":40.00201833518222,"lng":-89.03632055912166}},{"name":"Stamm","id":368,"start":"2014/07/19 21:00:00","percent_done":"10","location":{"lat":40.750667919777335,"lng":-97.28025663658045}},{"name":"Nolan","id":4173,"start":"2014/07/19 21:00:00","percent_done":"10","location":{"lat":40.412302810139956,"lng":-87.1465654253494}},{"name":"Schowalter","id":6767,"start":"2014/07/19 21:00:00","percent_done":"10","location":{"lat":41.98075267523527,"lng":-90.55936712389811}},{"name":"King","id":905,"start":"2014/07/19 21:00:00","percent_done":"10","location":{"lat":41.17186057139188,"lng":-87.4003963958472}},{"name":"Wyman","id":8505,"start":"2014/07/19 21:00:00","percent_done":"10","location":{"lat":40.29689822406508,"lng":-97.97863973970524}},{"name":"Keeling","id":4548,"start":"2014/07/19 21:00:00","percent_done":"10","location":{"lat":39.88469204623252,"lng":-91.7804532946553}},{"name":"Denesik","id":1154,"start":"2014/07/19 21:00:00","percent_done":"10","location":{"lat":40.78841980490834,"lng":-94.91920375954359}},{"name":"Yost","id":9294,"start":"2014/07/19 21:00:00","percent_done":"10","location":{"lat":41.29497919059359,"lng":-99.38053733170963}},{"name":"Wiegand","id":6791,"start":"2014/07/19 21:00:00","percent_done":"10","location":{"lat":41.98034446886741,"lng":-94.2271946216002}},{"name":"Abernathy","id":2982,"start":"2014/07/19 21:00:00","percent_done":"10","location":{"lat":41.515941893821584,"lng":-96.2561904195696}},{"name":"Kohler","id":4468,"start":"2014/07/19 21:00:00","percent_done":"10","location":{"lat":39.39181557195261,"lng":-90.71629574699327}},{"name":"Tromp","id":4360,"start":"2014/07/19 21:00:00","percent_done":"10","location":{"lat":41.81338808047585,"lng":-88.37131353178992}},{"name":"Rodriguez","id":8019,"start":"2014/07/19 21:00:00","percent_done":"10","location":{"lat":39.72768050446175,"lng":-93.34531248188577}},{"name":"Lehner","id":8784,"start":"2014/07/19 21:00:00","percent_done":"10","location":{"lat":41.70779682826251,"lng":-92.51975344507954}},{"name":"Brown","id":639,"start":"2014/07/19 21:00:00","percent_done":"10","location":{"lat":40.29071378139779,"lng":-91.6355136685539}},{"name":"Lind","id":4416,"start":"2014/07/19 21:00:00","percent_done":"10","location":{"lat":39.84420472769998,"lng":-95.08192934924736}},{"name":"Tillman","id":5340,"start":"2014/07/19 21:00:00","percent_done":"10","location":{"lat":40.91576680997387,"lng":-90.56736588655039}},{"name":"Jast","id":816,"start":"2014/07/19 21:00:00","percent_done":"10","location":{"lat":39.47565909000114,"lng":-96.2361579268705}},{"name":"Wolf","id":8240,"start":"2014/07/19 21:00:00","percent_done":"10","location":{"lat":41.50369184291922,"lng":-95.98933266280218}},{"name":"Barrows","id":2295,"start":"2014/07/19 21:00:00","percent_done":"10","location":{"lat":41.493367539159955,"lng":-93.65053155729547}},{"name":"Ward","id":8004,"start":"2014/07/19 21:00:00","percent_done":"10","location":{"lat":40.787848487403245,"lng":-92.31302736923098}},{"name":"Russel","id":8537,"start":"2014/07/19 21:00:00","percent_done":"10","location":{"lat":41.98695013988763,"lng":-87.44273174637928}},{"name":"Larkin","id":9686,"start":"2014/07/19 21:00:00","percent_done":"10","location":{"lat":41.452515485603364,"lng":-97.36900260988622}},{"name":"Heaney","id":5819,"start":"2014/07/19 21:00:00","percent_done":"10","location":{"lat":41.984577218210326,"lng":-94.78539964291267}},{"name":"Kovacek","id":2319,"start":"2014/07/19 21:00:00","percent_done":"10","location":{"lat":41.60934514217079,"lng":-94.01780119482427}},{"name":"Fritsch","id":8725,"start":"2014/07/19 21:00:00","percent_done":"10","location":{"lat":40.50392856206745,"lng":-93.27848119465634}},{"name":"Stanton","id":6243,"start":"2014/07/19 21:00:00","percent_done":"10","location":{"lat":41.1261653396301,"lng":-99.18804766577668}},{"name":"Harvey","id":9814,"start":"2014/07/19 21:00:00","percent_done":"10","location":{"lat":39.63621065663174,"lng":-99.16829648977145}},{"name":"Breitenberg","id":69,"start":"2014/07/19 21:00:00","percent_done":"10","location":{"lat":40.247550359368326,"lng":-90.20210968740284}},{"name":"Kilback","id":8542,"start":"2014/07/19 21:00:00","percent_done":"10","location":{"lat":41.411989766778426,"lng":-96.46156724253669}},{"name":"Pollich","id":4669,"start":"2014/07/19 21:00:00","percent_done":"10","location":{"lat":39.657702904799955,"lng":-92.480169672193}},{"name":"Kuvalis","id":9931,"start":"2014/07/19 21:00:00","percent_done":"10","location":{"lat":41.23268099771813,"lng":-90.66268018181435}},{"name":"Walter","id":1919,"start":"2014/07/19 21:00:00","percent_done":"10","location":{"lat":39.38784619877115,"lng":-96.723877489008}},{"name":"Brekke","id":192,"start":"2014/07/19 21:00:00","percent_done":"10","location":{"lat":40.072417670302094,"lng":-95.82393000312149}},{"name":"Sporer","id":1417,"start":"2014/07/19 21:00:00","percent_done":"10","location":{"lat":40.83695792956278,"lng":-95.8643865654245}},{"name":"Bradtke","id":2401,"start":"2014/07/19 21:00:00","percent_done":"10","location":{"lat":41.3901510107331,"lng":-96.96690938775427}},{"name":"Crooks","id":7524,"start":"2014/07/19 21:00:00","percent_done":"10","location":{"lat":41.14281408060342,"lng":-93.9531859931536}},{"name":"Adams","id":8727,"start":"2014/07/19 21:00:00","percent_done":"10","location":{"lat":41.89345399979502,"lng":-92.22905019847676}},{"name":"Abbott","id":8956,"start":"2014/07/19 21:00:00","percent_done":"10","location":{"lat":40.71188325285912,"lng":-92.51303665563464}},{"name":"Hintz","id":2814,"start":"2014/07/19 21:00:00","percent_done":"10","location":{"lat":41.454364392347635,"lng":-98.6790692702867}},{"name":"Jewess","id":209,"start":"2014/07/19 21:00:00","percent_done":"10","location":{"lat":41.015518569760026,"lng":-97.7639981502667}},{"name":"Schulist","id":4174,"start":"2014/07/19 21:00:00","percent_done":"10","location":{"lat":41.8733211775776,"lng":-94.39287828621454}},{"name":"Thompson","id":5695,"start":"2014/07/19 21:00:00","percent_done":"10","location":{"lat":39.82763364505954,"lng":-99.43256302261724}},{"name":"Hodkiewicz","id":1972,"start":"2014/07/19 21:00:00","percent_done":"10","location":{"lat":41.1840458937455,"lng":-98.42900679693557}},{"name":"Kuhn","id":6199,"start":"2014/07/19 21:00:00","percent_done":"10","location":{"lat":40.62315610274673,"lng":-96.20119091742671}},{"name":"Olson","id":3339,"start":"2014/07/19 21:00:00","percent_done":"10","location":{"lat":39.992365778796376,"lng":-99.53439919967204}},{"name":"Nikolaus","id":6255,"start":"2014/07/19 21:00:00","percent_done":"10","location":{"lat":40.82253698320128,"lng":-89.5523810846731}},{"name":"Russel","id":7304,"start":"2014/07/19 21:00:00","percent_done":"10","location":{"lat":39.42030820264481,"lng":-92.78226847867481}},{"name":"Pfeffer","id":9129,"start":"2014/07/19 21:00:00","percent_done":"10","location":{"lat":39.89244032572024,"lng":-94.11084254309534}},{"name":"Hegmann","id":6874,"start":"2014/07/19 21:00:00","percent_done":"10","location":{"lat":41.98037139293738,"lng":-93.03797313119284}},{"name":"Emard","id":8386,"start":"2014/07/19 21:00:00","percent_done":"10","location":{"lat":40.01662248270586,"lng":-94.8353581606876}},{"name":"Fritsch","id":4424,"start":"2014/07/19 21:00:00","percent_done":"10","location":{"lat":41.79860442122445,"lng":-90.33172785388305}},{"name":"Greenfelder","id":8910,"start":"2014/07/19 21:00:00","percent_done":"10","location":{"lat":41.314321764186026,"lng":-98.80770315523259}},{"name":"Anderson","id":1010,"start":"2014/07/19 21:00:00","percent_done":"10","location":{"lat":41.06144600189291,"lng":-87.29499004050157}},{"name":"Kautzer","id":156,"start":"2014/07/19 21:00:00","percent_done":"10","location":{"lat":40.5880498808343,"lng":-92.45141244227997}},{"name":"Hills","id":1208,"start":"2014/07/19 21:00:00","percent_done":"10","location":{"lat":40.474105020659046,"lng":-88.39853967390954}},{"name":"Toy","id":6952,"start":"2014/07/19 21:00:00","percent_done":"10","location":{"lat":40.45293537029065,"lng":-94.9906840425916}},{"name":"Sporer","id":1585,"start":"2014/07/19 21:00:00","percent_done":"10","location":{"lat":41.20979349515401,"lng":-94.37615452907048}},{"name":"Schultz","id":2621,"start":"2014/07/19 21:00:00","percent_done":"10","location":{"lat":39.19548101667315,"lng":-95.6028520419728}},{"name":"Cremin","id":9815,"start":"2014/07/19 21:00:00","percent_done":"10","location":{"lat":40.17525954791345,"lng":-96.97383920326828}},{"name":"Klocko","id":8491,"start":"2014/07/19 21:00:00","percent_done":"10","location":{"lat":39.99385067485273,"lng":-96.76750635695643}},{"name":"Goldner","id":7031,"start":"2014/07/19 21:00:00","percent_done":"10","location":{"lat":41.019325343100355,"lng":-91.21321423668414}},{"name":"Marvin","id":6600,"start":"2014/07/19 21:00:00","percent_done":"10","location":{"lat":39.166930467030035,"lng":-96.00637710620649}},{"name":"Johns","id":7334,"start":"2014/07/19 21:00:00","percent_done":"10","location":{"lat":39.53728199484758,"lng":-95.20900892782956}},{"name":"Hilpert","id":2580,"start":"2014/07/19 21:00:00","percent_done":"10","location":{"lat":40.840147886332126,"lng":-99.39015755932778}},{"name":"Greenfelder","id":748,"start":"2014/07/19 21:00:00","percent_done":"10","location":{"lat":40.47320835678838,"lng":-94.643454116676}},{"name":"Huel","id":9342,"start":"2014/07/19 21:00:00","percent_done":"10","location":{"lat":39.73129540276714,"lng":-98.70770960524678}},{"name":"Shanahan","id":3064,"start":"2014/07/19 21:00:00","percent_done":"10","location":{"lat":40.271840484719725,"lng":-95.04032305758446}},{"name":"Crooks","id":649,"start":"2014/07/19 21:00:00","percent_done":"10","location":{"lat":40.91178728910163,"lng":-93.98684801664203}},{"name":"Rowe","id":3885,"start":"2014/07/19 21:00:00","percent_done":"10","location":{"lat":40.71484754714184,"lng":-87.75054180053993}},{"name":"Steuber","id":756,"start":"2014/07/19 21:00:00","percent_done":"10","location":{"lat":40.277760930964725,"lng":-92.57133515006862}},{"name":"Dach","id":5662,"start":"2014/07/19 21:00:00","percent_done":"10","location":{"lat":40.15599785828963,"lng":-96.80913281617686}},{"name":"Stracke","id":4971,"start":"2014/07/19 21:00:00","percent_done":"10","location":{"lat":41.48031112402678,"lng":-94.92122373580932}},{"name":"Heller","id":7861,"start":"2014/07/19 21:00:00","percent_done":"10","location":{"lat":39.18566819969565,"lng":-99.09538352317176}},{"name":"Bogan","id":3087,"start":"2014/07/19 21:00:00","percent_done":"10","location":{"lat":39.2595314394217,"lng":-99.45987026779912}},{"name":"Greenfelder","id":4862,"start":"2014/07/19 21:00:00","percent_done":"10","location":{"lat":39.43267898927443,"lng":-88.91217306130565}},{"name":"Fahey","id":7419,"start":"2014/07/19 21:00:00","percent_done":"10","location":{"lat":39.454712954256685,"lng":-97.98180815894156}},{"name":"Torphy","id":4280,"start":"2014/07/19 21:00:00","percent_done":"10","location":{"lat":39.74613588224165,"lng":-94.62212404762394}},{"name":"Kuhlman","id":7685,"start":"2014/07/19 21:00:00","percent_done":"10","location":{"lat":41.68688052860089,"lng":-88.4408048027195}},{"name":"Hand","id":9703,"start":"2014/07/19 21:00:00","percent_done":"10","location":{"lat":40.51011303965934,"lng":-98.34446178367361}},{"name":"Pacocha","id":4499,"start":"2014/07/19 21:00:00","percent_done":"10","location":{"lat":41.93239543205127,"lng":-98.85554020213894}},{"name":"Littel","id":9219,"start":"2014/07/19 21:00:00","percent_done":"10","location":{"lat":39.61725532766432,"lng":-97.26079198638908}},{"name":"Blanda","id":6530,"start":"2014/07/19 21:00:00","percent_done":"10","location":{"lat":39.50786680439487,"lng":-87.29135136879049}},{"name":"VonRueden","id":3908,"start":"2014/07/19 21:00:00","percent_done":"10","location":{"lat":39.96421649390832,"lng":-88.1071885259822}},{"name":"Bauch","id":2107,"start":"2014/07/19 21:00:00","percent_done":"10","location":{"lat":39.97073299335316,"lng":-93.35012975861318}},{"name":"Ankunding","id":9734,"start":"2014/07/19 21:00:00","percent_done":"10","location":{"lat":41.98205623999238,"lng":-94.5641595755238}},{"name":"Haag","id":7895,"start":"2014/07/19 21:00:00","percent_done":"10","location":{"lat":41.56281463978812,"lng":-98.08365265666507}},{"name":"Lesch","id":8660,"start":"2014/07/19 21:00:00","percent_done":"10","location":{"lat":41.752223486220466,"lng":-94.50549515327438}},{"name":"Bartoletti","id":9489,"start":"2014/07/19 21:00:00","percent_done":"10","location":{"lat":40.951596735883506,"lng":-93.50116990590467}},{"name":"Leannon","id":351,"start":"2014/07/19 21:00:00","percent_done":"10","location":{"lat":40.42150101149455,"lng":-92.6712158549577}},{"name":"Ernser","id":3016,"start":"2014/07/19 21:00:00","percent_done":"10","location":{"lat":41.88702817228623,"lng":-99.66775277736596}},{"name":"Murazik","id":7275,"start":"2014/07/19 21:00:00","percent_done":"10","location":{"lat":41.043251392105596,"lng":-87.21225746804848}},{"name":"Oberbrunner","id":5505,"start":"2014/07/19 21:00:00","percent_done":"10","location":{"lat":41.734301291778685,"lng":-99.7563695971854}},{"name":"Boehm","id":3603,"start":"2014/07/19 21:00:00","percent_done":"10","location":{"lat":39.97755855591968,"lng":-97.94206639928743}},{"name":"Adams","id":4941,"start":"2014/07/19 21:00:00","percent_done":"10","location":{"lat":40.487302562594415,"lng":-97.60612191832624}},{"name":"Schinner","id":5951,"start":"2014/07/19 21:00:00","percent_done":"10","location":{"lat":40.538963296823205,"lng":-89.51933754202909}},{"name":"Legros","id":7075,"start":"2014/07/19 21:00:00","percent_done":"10","location":{"lat":39.347569736093284,"lng":-87.50418349276296}},{"name":"Von","id":3095,"start":"2014/07/19 21:00:00","percent_done":"10","location":{"lat":40.40696256551892,"lng":-94.38365534706972}},{"name":"Stanton","id":6183,"start":"2014/07/19 21:00:00","percent_done":"10","location":{"lat":40.718877925211565,"lng":-87.99492302178405}},{"name":"Mayer","id":7658,"start":"2014/07/19 21:00:00","percent_done":"10","location":{"lat":41.53929705978371,"lng":-97.52179978336207}},{"name":"Heidenreich","id":8706,"start":"2014/07/19 21:00:00","percent_done":"10","location":{"lat":41.026149288658054,"lng":-94.9639499428682}},{"name":"Gaylord","id":3658,"start":"2014/07/19 21:00:00","percent_done":"10","location":{"lat":41.80668870676309,"lng":-92.81572047867812}},{"name":"HarÂªann","id":9623,"start":"2014/07/19 21:00:00","percent_done":"10","location":{"lat":41.463847706932576,"lng":-93.83722421121783}},{"name":"Goodwin","id":7453,"start":"2014/07/19 21:00:00","percent_done":"10","location":{"lat":41.07404207731597,"lng":-98.42557263388298}},{"name":"Ullrich","id":3426,"start":"2014/07/19 21:00:00","percent_done":"10","location":{"lat":39.70361412144266,"lng":-90.33250308958813}},{"name":"Conroy","id":1956,"start":"2014/07/19 21:00:00","percent_done":"10","location":{"lat":41.065819152304904,"lng":-90.95275722923688}},{"name":"Turcotte","id":9508,"start":"2014/07/19 21:00:00","percent_done":"10","location":{"lat":41.23763486314565,"lng":-97.41475915666669}},{"name":"Renner","id":6090,"start":"2014/07/19 21:00:00","percent_done":"10","location":{"lat":39.18315098565072,"lng":-89.250423735613}},{"name":"Leffler","id":4787,"start":"2014/07/19 21:00:00","percent_done":"10","location":{"lat":40.13251243196428,"lng":-98.14130817740224}},{"name":"Parker","id":315,"start":"2014/07/19 21:00:00","percent_done":"10","location":{"lat":39.820416062977166,"lng":-96.46516250087879}},{"name":"Johnston","id":4627,"start":"2014/07/19 21:00:00","percent_done":"10","location":{"lat":40.540120157320054,"lng":-93.18803222654387}},{"name":"Champlin","id":94,"start":"2014/07/19 21:00:00","percent_done":"10","location":{"lat":40.982376541383566,"lng":-87.33812734428793}},{"name":"Walter","id":1741,"start":"2014/07/19 21:00:00","percent_done":"10","location":{"lat":39.27074846895412,"lng":-94.55705235633067}},{"name":"Marvin","id":5924,"start":"2014/07/19 21:00:00","percent_done":"10","location":{"lat":39.36998689514585,"lng":-93.06944977599196}},{"name":"Langworth","id":939,"start":"2014/07/19 21:00:00","percent_done":"10","location":{"lat":40.013400509161876,"lng":-96.59427467747591}},{"name":"Wilkinson","id":9688,"start":"2014/07/19 21:00:00","percent_done":"10","location":{"lat":41.946612121211366,"lng":-98.83412241949699}},{"name":"Crist","id":3190,"start":"2014/07/19 21:00:00","percent_done":"10","location":{"lat":41.47237662449479,"lng":-91.51418340872041}},{"name":"Weimann","id":9531,"start":"2014/07/19 21:00:00","percent_done":"10","location":{"lat":40.741515937633814,"lng":-95.19090753854252}},{"name":"Kshlerin","id":6449,"start":"2014/07/19 21:00:00","percent_done":"10","location":{"lat":40.311302442941816,"lng":-88.67357430830597}},{"name":"Huels","id":6298,"start":"2014/07/19 21:00:00","percent_done":"10","location":{"lat":41.94807599615306,"lng":-99.62735333680175}},{"name":"Rempel","id":447,"start":"2014/07/19 21:00:00","percent_done":"10","location":{"lat":41.94403032320552,"lng":-90.21909406096674}},{"name":"McDermott","id":3810,"start":"2014/07/19 21:00:00","percent_done":"10","location":{"lat":39.95197464050725,"lng":-93.46179312970489}},{"name":"Welch","id":2529,"start":"2014/07/19 21:00:00","percent_done":"10","location":{"lat":40.93670211909339,"lng":-92.32263398836366}},{"name":"Cummings","id":135,"start":"2014/07/19 21:00:00","percent_done":"10","location":{"lat":41.09944384628907,"lng":-97.92432904909364}},{"name":"Bauch","id":1047,"start":"2014/07/19 21:00:00","percent_done":"10","location":{"lat":40.975599063700066,"lng":-98.44599416702985}},{"name":"Windler","id":4046,"start":"2014/07/19 21:00:00","percent_done":"10","location":{"lat":40.87237155707553,"lng":-87.6860351822339}},{"name":"Wiza","id":6131,"start":"2014/07/19 21:00:00","percent_done":"10","location":{"lat":39.60599564402364,"lng":-97.52462898627854}},{"name":"Gaylord","id":3164,"start":"2014/07/19 21:00:00","percent_done":"10","location":{"lat":39.38469394450076,"lng":-87.41331780715845}},{"name":"Kirlin","id":6910,"start":"2014/07/19 21:00:00","percent_done":"10","location":{"lat":39.593414758704604,"lng":-94.7623536364641}},{"name":"Hane","id":6562,"start":"2014/07/19 21:00:00","percent_done":"10","location":{"lat":39.21434946162626,"lng":-90.56787676471285}},{"name":"Mills","id":9259,"start":"2014/07/19 21:00:00","percent_done":"10","location":{"lat":41.493015027046205,"lng":-92.2708316146396}},{"name":"Boyle","id":5568,"start":"2014/07/19 21:00:00","percent_done":"10","location":{"lat":41.11079743797891,"lng":-88.82142717638052}},{"name":"Wyman","id":3154,"start":"2014/07/19 21:00:00","percent_done":"10","location":{"lat":41.78548022443429,"lng":-93.51771457646973}},{"name":"Hills","id":5616,"start":"2014/07/19 21:00:00","percent_done":"10","location":{"lat":40.33604124528356,"lng":-93.90254708742722}},{"name":"Bruen","id":8041,"start":"2014/07/19 21:00:00","percent_done":"10","location":{"lat":40.831490877224134,"lng":-88.67552899047732}},{"name":"Pacocha","id":3495,"start":"2014/07/19 21:00:00","percent_done":"10","location":{"lat":40.503768793214114,"lng":-98.94544600220397}},{"name":"Hegmann","id":1823,"start":"2014/07/19 21:00:00","percent_done":"10","location":{"lat":41.879447541339324,"lng":-89.19021029784344}},{"name":"Davis","id":9168,"start":"2014/07/19 21:00:00","percent_done":"10","location":{"lat":42.066931064613165,"lng":-97.50931727900169}},{"name":"Klocko","id":6247,"start":"2014/07/19 21:00:00","percent_done":"10","location":{"lat":40.0114860559348,"lng":-92.90474809254519}},{"name":"Sanford","id":8548,"start":"2014/07/19 21:00:00","percent_done":"10","location":{"lat":39.219434696622194,"lng":-93.34912673514336}},{"name":"Rath","id":1985,"start":"2014/07/19 21:00:00","percent_done":"10","location":{"lat":40.56369522251189,"lng":-90.89419957729987}},{"name":"Thompson","id":1700,"start":"2014/07/19 21:00:00","percent_done":"10","location":{"lat":41.17501753559336,"lng":-88.07537503181956}},{"name":"Harris","id":4232,"start":"2014/07/19 21:00:00","percent_done":"10","location":{"lat":42.09520048312843,"lng":-89.50979924681596}},{"name":"Medhurst","id":6522,"start":"2014/07/19 21:00:00","percent_done":"10","location":{"lat":39.35513434573077,"lng":-98.25477929473854}},{"name":"McDermott","id":5748,"start":"2014/07/19 21:00:00","percent_done":"10","location":{"lat":41.900193645060064,"lng":-87.95018511675298}},{"name":"Bayer","id":5324,"start":"2014/07/19 21:00:00","percent_done":"10","location":{"lat":39.17567845541053,"lng":-100.0836697448045}},{"name":"Durgan","id":2214,"start":"2014/07/19 21:00:00","percent_done":"10","location":{"lat":41.05855007809587,"lng":-91.56186670032329}},{"name":"Boyle","id":5283,"start":"2014/07/19 21:00:00","percent_done":"10","location":{"lat":40.39239196307026,"lng":-89.23727192441001}},{"name":"Schuppe","id":8285,"start":"2014/07/19 21:00:00","percent_done":"10","location":{"lat":39.75907002845779,"lng":-94.27421718430705}},{"name":"Bogisich","id":8304,"start":"2014/07/19 21:00:00","percent_done":"10","location":{"lat":39.54101637997665,"lng":-98.31768964920192}},{"name":"Quitzon","id":8542,"start":"2014/07/19 21:00:00","percent_done":"10","location":{"lat":40.03071642029099,"lng":-89.67786164502613}},{"name":"Ryan","id":7205,"start":"2014/07/19 21:00:00","percent_done":"10","location":{"lat":40.59884434370324,"lng":-88.81370444865897}},{"name":"Stehr","id":6795,"start":"2014/07/19 21:00:00","percent_done":"10","location":{"lat":39.64676160286181,"lng":-96.13288773144595}},{"name":"Kihn","id":8658,"start":"2014/07/19 21:00:00","percent_done":"10","location":{"lat":40.501658821618186,"lng":-89.17451436878181}},{"name":"Gutkowski","id":9521,"start":"2014/07/19 21:00:00","percent_done":"10","location":{"lat":41.16492776726373,"lng":-91.31802953095175}},{"name":"Keeling","id":5426,"start":"2014/07/19 21:00:00","percent_done":"10","location":{"lat":40.264484401466326,"lng":-95.5057009764947}},{"name":"Effertz","id":4027,"start":"2014/07/19 21:00:00","percent_done":"10","location":{"lat":39.63853280982003,"lng":-88.7433289409615}},{"name":"Gleichner","id":7956,"start":"2014/07/19 21:00:00","percent_done":"10","location":{"lat":39.211657838337125,"lng":-97.3089377969969}},{"name":"O'Conner","id":4115,"start":"2014/07/19 21:00:00","percent_done":"10","location":{"lat":39.99648114168085,"lng":-94.69640239388681}},{"name":"Reilly","id":4285,"start":"2014/07/19 21:00:00","percent_done":"10","location":{"lat":41.46884155473672,"lng":-98.49524668105877}},{"name":"Ortiz","id":5995,"start":"2014/07/19 21:00:00","percent_done":"10","location":{"lat":40.3637488716282,"lng":-88.76943217115476}},{"name":"Lynch","id":7732,"start":"2014/07/19 21:00:00","percent_done":"10","location":{"lat":41.30526854810305,"lng":-87.2183636917267}},{"name":"Hoppe","id":9366,"start":"2014/07/19 21:00:00","percent_done":"10","location":{"lat":41.704280503233896,"lng":-92.97079667998477}},{"name":"Hickle","id":5169,"start":"2014/07/19 21:00:00","percent_done":"10","location":{"lat":40.96186408461072,"lng":-87.90230995034798}},{"name":"Wisozk","id":6356,"start":"2014/07/19 21:00:00","percent_done":"10","location":{"lat":39.77091285577044,"lng":-99.093417003192}},{"name":"Goyette","id":8461,"start":"2014/07/19 21:00:00","percent_done":"10","location":{"lat":40.89703358188272,"lng":-99.66136573036201}},{"name":"McKenzie","id":3245,"start":"2014/07/19 21:00:00","percent_done":"10","location":{"lat":41.91972657097504,"lng":-89.6056414459832}},{"name":"Armstrong","id":4865,"start":"2014/07/19 21:00:00","percent_done":"10","location":{"lat":40.65876894015819,"lng":-87.17906784303486}},{"name":"Kuhlman","id":8176,"start":"2014/07/19 21:00:00","percent_done":"10","location":{"lat":41.960442134318875,"lng":-89.7604075517971}},{"name":"Hettinger","id":5547,"start":"2014/07/19 21:00:00","percent_done":"10","location":{"lat":40.66406708736904,"lng":-93.11301028975285}},{"name":"Predovic","id":3134,"start":"2014/07/19 21:00:00","percent_done":"10","location":{"lat":39.47782747927122,"lng":-95.71933687585405}},{"name":"Kuphal","id":28,"start":"2014/07/19 21:00:00","percent_done":"10","location":{"lat":41.05740036806092,"lng":-97.49543757727369}},{"name":"Kautzer","id":5452,"start":"2014/07/19 21:00:00","percent_done":"10","location":{"lat":39.85186763191596,"lng":-90.15908201122656}},{"name":"Hand","id":5383,"start":"2014/07/19 21:00:00","percent_done":"10","location":{"lat":41.84277858273126,"lng":-91.52460065591148}},{"name":"Willms","id":7276,"start":"2014/07/19 21:00:00","percent_done":"10","location":{"lat":39.9234290194232,"lng":-89.14809500160626}},{"name":"Feest","id":8027,"start":"2014/07/19 21:00:00","percent_done":"10","location":{"lat":40.93384706056677,"lng":-87.86487093651667}},{"name":"Treutel","id":6478,"start":"2014/07/19 21:00:00","percent_done":"10","location":{"lat":41.5679473079741,"lng":-91.1624762456864}},{"name":"Wisoky","id":6058,"start":"2014/07/19 21:00:00","percent_done":"10","location":{"lat":42.048736243182795,"lng":-90.99660560362972}},{"name":"Schuster","id":8371,"start":"2014/07/19 21:00:00","percent_done":"10","location":{"lat":40.45810758569278,"lng":-95.43992819394916}},{"name":"Emmerich","id":4884,"start":"2014/07/19 21:00:00","percent_done":"10","location":{"lat":41.28688211776316,"lng":-99.86532128988765}},{"name":"Beahan","id":3542,"start":"2014/07/19 21:00:00","percent_done":"10","location":{"lat":41.77634116788395,"lng":-87.34092147266492}},{"name":"Mills","id":2535,"start":"2014/07/19 21:00:00","percent_done":"10","location":{"lat":41.527868756698446,"lng":-95.86225062948651}},{"name":"Hintz","id":8679,"start":"2014/07/19 21:00:00","percent_done":"10","location":{"lat":41.87531615435146,"lng":-97.107726771757}},{"name":"Fisher","id":6797,"start":"2014/07/19 21:00:00","percent_done":"10","location":{"lat":40.727551070880146,"lng":-88.22614772212691}},{"name":"Littel","id":4636,"start":"2014/07/19 21:00:00","percent_done":"10","location":{"lat":39.622732730256395,"lng":-90.37741330419666}},{"name":"Brekke","id":37,"start":"2014/07/19 21:00:00","percent_done":"10","location":{"lat":40.75336393029429,"lng":-92.73723168638534}},{"name":"Trantow","id":6842,"start":"2014/07/19 21:00:00","percent_done":"10","location":{"lat":39.31299692802131,"lng":-91.63829749673604}},{"name":"Schinner","id":3838,"start":"2014/07/19 21:00:00","percent_done":"10","location":{"lat":40.13067103610374,"lng":-99.43370676194317}},{"name":"Emmerich","id":3894,"start":"2014/07/19 21:00:00","percent_done":"10","location":{"lat":39.79673117808998,"lng":-99.72547873775474}},{"name":"Champlin","id":8738,"start":"2014/07/19 21:00:00","percent_done":"10","location":{"lat":39.50140622970648,"lng":-88.85115986773744}},{"name":"Jones","id":7127,"start":"2014/07/19 21:00:00","percent_done":"10","location":{"lat":39.49610262797214,"lng":-87.42579025649465}},{"name":"Reinger","id":5947,"start":"2014/07/19 21:00:00","percent_done":"10","location":{"lat":41.26826452291571,"lng":-94.89946097987703}},{"name":"Hermiston","id":5378,"start":"2014/07/19 21:00:00","percent_done":"10","location":{"lat":41.75813913452439,"lng":-90.18426385070197}},{"name":"Dicki","id":4502,"start":"2014/07/19 21:00:00","percent_done":"10","location":{"lat":39.766842442238705,"lng":-89.63432371118105}},{"name":"Breitenberg","id":839,"start":"2014/07/19 21:00:00","percent_done":"10","location":{"lat":39.66466316734441,"lng":-88.48489614427089}},{"name":"Hahn","id":2290,"start":"2014/07/19 21:00:00","percent_done":"10","location":{"lat":41.82648693318479,"lng":-95.47540788552723}},{"name":"Buckridge","id":6106,"start":"2014/07/19 21:00:00","percent_done":"10","location":{"lat":41.73270253944211,"lng":-97.35893863243982}},{"name":"Weimann","id":4616,"start":"2014/07/19 21:00:00","percent_done":"10","location":{"lat":40.047022371459754,"lng":-87.71387108499184}},{"name":"Conroy","id":6138,"start":"2014/07/19 21:00:00","percent_done":"10","location":{"lat":40.62338253706694,"lng":-91.9273263880983}},{"name":"O'Conner","id":8432,"start":"2014/07/19 21:00:00","percent_done":"10","location":{"lat":40.02276829876937,"lng":-91.40786305712535}},{"name":"Blick","id":6113,"start":"2014/07/19 21:00:00","percent_done":"10","location":{"lat":39.57082460066304,"lng":-87.58576359357684}},{"name":"Upton","id":6120,"start":"2014/07/19 21:00:00","percent_done":"10","location":{"lat":39.46914890562184,"lng":-92.26211873642168}},{"name":"Gleichner","id":2249,"start":"2014/07/19 21:00:00","percent_done":"10","location":{"lat":39.7523107890971,"lng":-90.44163028211332}},{"name":"Howell","id":2455,"start":"2014/07/19 21:00:00","percent_done":"10","location":{"lat":41.998440420860426,"lng":-96.22793492386117}},{"name":"Satterfield","id":2829,"start":"2014/07/19 21:00:00","percent_done":"10","location":{"lat":40.67519073202275,"lng":-90.74428455452434}},{"name":"Harris","id":675,"start":"2014/07/19 21:00:00","percent_done":"10","location":{"lat":40.22907611113042,"lng":-88.69551457385532}},{"name":"Stanton","id":5366,"start":"2014/07/19 21:00:00","percent_done":"10","location":{"lat":41.04140627398156,"lng":-90.87506583789363}},{"name":"Schowalter","id":8986,"start":"2014/07/19 21:00:00","percent_done":"10","location":{"lat":41.72826226744801,"lng":-91.4632959392853}},{"name":"Boyle","id":4750,"start":"2014/07/19 21:00:00","percent_done":"10","location":{"lat":40.091494808578865,"lng":-98.26208383697085}},{"name":"Walker","id":9492,"start":"2014/07/19 21:00:00","percent_done":"10","location":{"lat":41.68202445693314,"lng":-95.78299699248745}},{"name":"Zulauf","id":3530,"start":"2014/07/19 21:00:00","percent_done":"10","location":{"lat":41.23706745998934,"lng":-93.78388914247043}},{"name":"Kshlerin","id":4297,"start":"2014/07/19 21:00:00","percent_done":"10","location":{"lat":40.9301478473004,"lng":-96.44266105783171}},{"name":"White","id":7819,"start":"2014/07/19 21:00:00","percent_done":"10","location":{"lat":41.00159124066122,"lng":-97.26703549958765}},{"name":"Hermiston","id":8218,"start":"2014/07/19 21:00:00","percent_done":"10","location":{"lat":39.834914715169,"lng":-99.83125089379027}},{"name":"Lang","id":8709,"start":"2014/07/19 21:00:00","percent_done":"10","location":{"lat":40.02931441566907,"lng":-91.65377672519534}},{"name":"Langworth","id":4795,"start":"2014/07/19 21:00:00","percent_done":"10","location":{"lat":40.64633809858933,"lng":-93.17054884289391}},{"name":"Legros","id":5153,"start":"2014/07/19 21:00:00","percent_done":"10","location":{"lat":42.01583785787225,"lng":-95.68981967135332}},{"name":"Spinka","id":447,"start":"2014/07/19 21:00:00","percent_done":"10","location":{"lat":40.713248355453835,"lng":-96.29637052621692}},{"name":"Nolan","id":7691,"start":"2014/07/19 21:00:00","percent_done":"10","location":{"lat":40.7384434287902,"lng":-92.32487285360693}},{"name":"Nader","id":5475,"start":"2014/07/19 21:00:00","percent_done":"10","location":{"lat":42.07629576968029,"lng":-90.67362980954348}},{"name":"Douglas","id":2888,"start":"2014/07/19 21:00:00","percent_done":"10","location":{"lat":41.92546497345902,"lng":-98.7531527179759}},{"name":"Lehner","id":4341,"start":"2014/07/19 21:00:00","percent_done":"10","location":{"lat":41.03816011934541,"lng":-90.43082041679881}},{"name":"Flatley","id":9660,"start":"2014/07/19 21:00:00","percent_done":"10","location":{"lat":41.76745465178974,"lng":-95.6148546656128}},{"name":"Corkery","id":8219,"start":"2014/07/19 21:00:00","percent_done":"10","location":{"lat":41.04916391186416,"lng":-98.01603909339755}},{"name":"Shields","id":4505,"start":"2014/07/19 21:00:00","percent_done":"10","location":{"lat":41.402387987961994,"lng":-94.15263091786764}},{"name":"Pouros","id":3694,"start":"2014/07/19 21:00:00","percent_done":"10","location":{"lat":41.160763988411055,"lng":-98.26386605217121}},{"name":"Thompson","id":9396,"start":"2014/07/19 21:00:00","percent_done":"10","location":{"lat":41.90500674340874,"lng":-93.77241630237549}},{"name":"Abbott","id":9181,"start":"2014/07/19 21:00:00","percent_done":"10","location":{"lat":39.55360035542399,"lng":-95.33696215846575}},{"name":"Johnston","id":9803,"start":"2014/07/19 21:00:00","percent_done":"10","location":{"lat":39.41097105308436,"lng":-96.15381530290469}},{"name":"Dickens","id":4517,"start":"2014/07/19 21:00:00","percent_done":"10","location":{"lat":41.57556464886293,"lng":-98.68435271633788}},{"name":"Rogahn","id":2136,"start":"2014/07/19 21:00:00","percent_done":"10","location":{"lat":41.46381271388382,"lng":-90.81041534375399}},{"name":"Mills","id":8135,"start":"2014/07/19 21:00:00","percent_done":"10","location":{"lat":41.20826546722092,"lng":-95.04107765052467}},{"name":"Crist","id":1276,"start":"2014/07/19 21:00:00","percent_done":"10","location":{"lat":40.24130895957351,"lng":-96.52331974068656}},{"name":"Kemmer","id":9469,"start":"2014/07/19 21:00:00","percent_done":"10","location":{"lat":40.33952801292762,"lng":-96.87129759755916}},{"name":"Deckow","id":1975,"start":"2014/07/19 21:00:00","percent_done":"10","location":{"lat":41.42264003297314,"lng":-91.51245573339983}},{"name":"Volkman","id":3734,"start":"2014/07/19 21:00:00","percent_done":"10","location":{"lat":39.61960685034283,"lng":-96.91350940628908}},{"name":"Kuvalis","id":2438,"start":"2014/07/19 21:00:00","percent_done":"10","location":{"lat":39.66513652345166,"lng":-87.21801691143773}},{"name":"Wolff","id":8585,"start":"2014/07/19 21:00:00","percent_done":"10","location":{"lat":40.81168558835052,"lng":-87.52808562004938}},{"name":"McClure","id":7785,"start":"2014/07/19 21:00:00","percent_done":"10","location":{"lat":42.043565834779294,"lng":-98.03045574612915}},{"name":"DuBuque","id":3135,"start":"2014/07/19 21:00:00","percent_done":"10","location":{"lat":40.03953969003633,"lng":-95.56842210763133}},{"name":"Kerluke","id":2888,"start":"2014/07/19 21:00:00","percent_done":"10","location":{"lat":41.4958811336197,"lng":-96.41182318856008}},{"name":"Walker","id":8934,"start":"2014/07/19 21:00:00","percent_done":"10","location":{"lat":39.35933216279373,"lng":-94.91658250675536}},{"name":"Mills","id":9174,"start":"2014/07/19 21:00:00","percent_done":"10","location":{"lat":41.206133094988765,"lng":-93.15049428180791}},{"name":"McDermott","id":6854,"start":"2014/07/19 21:00:00","percent_done":"10","location":{"lat":40.88265911107883,"lng":-99.482652788423}},{"name":"Kerluke","id":3913,"start":"2014/07/19 21:00:00","percent_done":"10","location":{"lat":39.4013994442299,"lng":-89.54781215069815}},{"name":"Nolan","id":9541,"start":"2014/07/19 21:00:00","percent_done":"10","location":{"lat":40.237261021416636,"lng":-91.63837336949072}},{"name":"Wiegand","id":6901,"start":"2014/07/19 21:00:00","percent_done":"10","location":{"lat":42.07681774292141,"lng":-87.53075144547037}},{"name":"Lehner","id":7247,"start":"2014/07/19 21:00:00","percent_done":"10","location":{"lat":39.49880526647903,"lng":-87.57636099881492}},{"name":"Herman","id":3153,"start":"2014/07/19 21:00:00","percent_done":"10","location":{"lat":39.58535681748763,"lng":-88.51363001940771}},{"name":"Howe","id":3696,"start":"2014/07/19 21:00:00","percent_done":"10","location":{"lat":41.03312097084709,"lng":-94.47919848342426}},{"name":"Fay","id":1972,"start":"2014/07/19 21:00:00","percent_done":"10","location":{"lat":39.94206714434549,"lng":-97.42114218105561}},{"name":"Smith","id":7852,"start":"2014/07/19 21:00:00","percent_done":"10","location":{"lat":41.79424600969069,"lng":-98.54068574998527}},{"name":"Simonis","id":7997,"start":"2014/07/19 21:00:00","percent_done":"10","location":{"lat":39.76363245761022,"lng":-98.07768858051858}},{"name":"Johnston","id":5297,"start":"2014/07/19 21:00:00","percent_done":"10","location":{"lat":41.85540207326412,"lng":-91.81990323159843}},{"name":"Hickle","id":5510,"start":"2014/07/19 21:00:00","percent_done":"10","location":{"lat":39.31160579612479,"lng":-99.72767834239639}},{"name":"Swaniawski","id":6819,"start":"2014/07/19 21:00:00","percent_done":"10","location":{"lat":40.243150810152294,"lng":-88.42686758274212}},{"name":"Hudson","id":8061,"start":"2014/07/19 21:00:00","percent_done":"10","location":{"lat":40.06171567239799,"lng":-89.15136393476277}},{"name":"Keebler","id":5463,"start":"2014/07/19 21:00:00","percent_done":"10","location":{"lat":41.61549400086515,"lng":-87.77451302357949}},{"name":"Lesch","id":2885,"start":"2014/07/19 21:00:00","percent_done":"10","location":{"lat":40.34037270480767,"lng":-89.88516511898487}},{"name":"Wintheiser","id":3046,"start":"2014/07/19 21:00:00","percent_done":"10","location":{"lat":40.33929035034962,"lng":-94.85663089309818}},{"name":"Johns","id":4246,"start":"2014/07/19 21:00:00","percent_done":"10","location":{"lat":42.030899649625646,"lng":-90.98476424477994}},{"name":"Lehner","id":9031,"start":"2014/07/19 21:00:00","percent_done":"10","location":{"lat":39.11970551768318,"lng":-87.5006580535788}},{"name":"Hamill","id":8368,"start":"2014/07/19 21:00:00","percent_done":"10","location":{"lat":40.681643672892825,"lng":-97.74196311868727}},{"name":"Ortiz","id":1274,"start":"2014/07/19 21:00:00","percent_done":"10","location":{"lat":40.197413354553284,"lng":-98.6746368812397}},{"name":"GuÂªann","id":974,"start":"2014/07/19 21:00:00","percent_done":"10","location":{"lat":39.46242812941782,"lng":-88.75200587594881}},{"name":"Renner","id":3023,"start":"2014/07/19 21:00:00","percent_done":"10","location":{"lat":41.43561564376578,"lng":-90.68601538976654}},{"name":"Green","id":3862,"start":"2014/07/19 21:00:00","percent_done":"10","location":{"lat":39.451960859028624,"lng":-97.49149418566375}},{"name":"Veum","id":5333,"start":"2014/07/19 21:00:00","percent_done":"10","location":{"lat":41.181144123570995,"lng":-88.66638365541584}},{"name":"Farrell","id":8096,"start":"2014/07/19 21:00:00","percent_done":"10","location":{"lat":39.967719541303815,"lng":-92.10321077788248}},{"name":"Gottlieb","id":8756,"start":"2014/07/19 21:00:00","percent_done":"10","location":{"lat":41.28626140989363,"lng":-97.67822519820183}},{"name":"O'Reilly","id":7471,"start":"2014/07/19 21:00:00","percent_done":"10","location":{"lat":39.1499762238469,"lng":-90.55489661232568}},{"name":"Koss","id":2399,"start":"2014/07/19 21:00:00","percent_done":"10","location":{"lat":42.055776017159225,"lng":-90.68822446828707}},{"name":"Fritsch","id":7796,"start":"2014/07/19 21:00:00","percent_done":"10","location":{"lat":40.319651594525205,"lng":-91.29586453167721}},{"name":"Jakubowski","id":8306,"start":"2014/07/19 21:00:00","percent_done":"10","location":{"lat":41.1918901138939,"lng":-99.26931322473101}},{"name":"D'Amore","id":6675,"start":"2014/07/19 21:00:00","percent_done":"10","location":{"lat":40.42063348591328,"lng":-99.56337801543995}},{"name":"Ledner","id":7185,"start":"2014/07/19 21:00:00","percent_done":"10","location":{"lat":42.094910389650614,"lng":-87.26884942329488}},{"name":"Hilpert","id":4256,"start":"2014/07/19 21:00:00","percent_done":"10","location":{"lat":41.944493806827815,"lng":-98.2218279483728}},{"name":"Bechtelar","id":441,"start":"2014/07/19 21:00:00","percent_done":"10","location":{"lat":39.45559122543782,"lng":-93.57129326616413}},{"name":"Thiel","id":4762,"start":"2014/07/19 21:00:00","percent_done":"10","location":{"lat":39.64298700694926,"lng":-88.70032190452329}},{"name":"Wiza","id":2623,"start":"2014/07/19 21:00:00","percent_done":"10","location":{"lat":41.06518469392322,"lng":-91.54281066791154}},{"name":"Sporer","id":176,"start":"2014/07/19 21:00:00","percent_done":"10","location":{"lat":39.16691515608691,"lng":-94.89745359811931}},{"name":"GuÂªann","id":5122,"start":"2014/07/19 21:00:00","percent_done":"10","location":{"lat":40.159966280823575,"lng":-99.37011682465672}},{"name":"Stiedemann","id":3522,"start":"2014/07/19 21:00:00","percent_done":"10","location":{"lat":41.922973410831766,"lng":-88.28081319285556}},{"name":"Stamm","id":123,"start":"2014/07/19 21:00:00","percent_done":"10","location":{"lat":40.88592713479884,"lng":-99.83465468292124}},{"name":"Bernier","id":4340,"start":"2014/07/19 21:00:00","percent_done":"10","location":{"lat":42.051890632044525,"lng":-98.00975035983137}},{"name":"Conn","id":1772,"start":"2014/07/19 21:00:00","percent_done":"10","location":{"lat":40.83371765483171,"lng":-95.01390540054999}},{"name":"Kutch","id":174,"start":"2014/07/19 21:00:00","percent_done":"10","location":{"lat":39.93431788836606,"lng":-95.19266082057729}},{"name":"Morar","id":2533,"start":"2014/07/19 21:00:00","percent_done":"10","location":{"lat":40.010834974143656,"lng":-95.84468192947097}},{"name":"Wolf","id":3974,"start":"2014/07/19 21:00:00","percent_done":"10","location":{"lat":40.677252006856726,"lng":-93.74014976006}},{"name":"Hilll","id":9711,"start":"2014/07/19 21:00:00","percent_done":"10","location":{"lat":39.6724083497189,"lng":-98.12123698405921}},{"name":"Christiansen","id":7376,"start":"2014/07/19 21:00:00","percent_done":"10","location":{"lat":39.99792872499675,"lng":-88.52597905709408}},{"name":"Rath","id":3871,"start":"2014/07/19 21:00:00","percent_done":"10","location":{"lat":40.60136071396992,"lng":-88.7136544640176}},{"name":"Bosco","id":8654,"start":"2014/07/19 21:00:00","percent_done":"10","location":{"lat":40.99384736237116,"lng":-90.55646443334408}},{"name":"Hoppe","id":9979,"start":"2014/07/19 21:00:00","percent_done":"10","location":{"lat":40.903363426122816,"lng":-97.95280189616605}},{"name":"Hahn","id":9629,"start":"2014/07/19 21:00:00","percent_done":"10","location":{"lat":40.85868209311739,"lng":-95.51642357618547}},{"name":"Skiles","id":8326,"start":"2014/07/19 21:00:00","percent_done":"10","location":{"lat":39.99188525546342,"lng":-89.59602699349634}},{"name":"Tremblay","id":9554,"start":"2014/07/19 21:00:00","percent_done":"10","location":{"lat":39.26612334456295,"lng":-97.1055710375309}},{"name":"Reichert","id":5387,"start":"2014/07/19 21:00:00","percent_done":"10","location":{"lat":40.20523461876437,"lng":-93.27252687690779}},{"name":"Franecki","id":5347,"start":"2014/07/19 21:00:00","percent_done":"10","location":{"lat":41.39811437963508,"lng":-90.82874421509914}},{"name":"Wisozk","id":469,"start":"2014/07/19 21:00:00","percent_done":"10","location":{"lat":39.94352282178588,"lng":-88.30430669025517}},{"name":"Prosacco","id":9915,"start":"2014/07/19 21:00:00","percent_done":"10","location":{"lat":40.078170392569156,"lng":-94.71894086981192}},{"name":"Willms","id":2381,"start":"2014/07/19 21:00:00","percent_done":"10","location":{"lat":41.087641581799836,"lng":-97.7503123815637}},{"name":"Kuhic","id":4728,"start":"2014/07/19 21:00:00","percent_done":"10","location":{"lat":40.38388289525174,"lng":-98.99576117065735}},{"name":"Legros","id":6157,"start":"2014/07/19 21:00:00","percent_done":"10","location":{"lat":39.80710628246889,"lng":-99.51074550291523}},{"name":"Bailey","id":2770,"start":"2014/07/19 21:00:00","percent_done":"10","location":{"lat":41.58357335687615,"lng":-99.31331867785192}},{"name":"Batz","id":5092,"start":"2014/07/19 21:00:00","percent_done":"10","location":{"lat":40.56980585763231,"lng":-89.16879905005916}},{"name":"Nitzsche","id":3368,"start":"2014/07/19 21:00:00","percent_done":"10","location":{"lat":41.650929352175446,"lng":-88.47906659417785}},{"name":"Kemmer","id":5517,"start":"2014/07/19 21:00:00","percent_done":"10","location":{"lat":39.68477169182152,"lng":-99.3663339653518}},{"name":"Reinger","id":8105,"start":"2014/07/19 21:00:00","percent_done":"10","location":{"lat":41.317006351565944,"lng":-89.56087914798408}},{"name":"Schoen","id":443,"start":"2014/07/19 21:00:00","percent_done":"10","location":{"lat":39.16990729854442,"lng":-97.50653810603544}},{"name":"Kulas","id":5042,"start":"2014/07/19 21:00:00","percent_done":"10","location":{"lat":42.09906440917403,"lng":-94.3727487150114}},{"name":"Ritchie","id":1490,"start":"2014/07/19 21:00:00","percent_done":"10","location":{"lat":41.23642188021913,"lng":-89.45417323070578}},{"name":"Boyer","id":6351,"start":"2014/07/19 21:00:00","percent_done":"10","location":{"lat":40.180724915489556,"lng":-93.21425464600324}},{"name":"Pfeffer","id":1233,"start":"2014/07/19 21:00:00","percent_done":"10","location":{"lat":40.75860134433024,"lng":-99.76269344463944}},{"name":"Bednar","id":589,"start":"2014/07/19 21:00:00","percent_done":"10","location":{"lat":41.59930642801337,"lng":-99.23555310270748}},{"name":"Schroeder","id":5447,"start":"2014/07/19 21:00:00","percent_done":"10","location":{"lat":40.403699649171905,"lng":-96.97558036902919}},{"name":"Yundt","id":7274,"start":"2014/07/19 21:00:00","percent_done":"10","location":{"lat":40.16353469728492,"lng":-89.31454151323996}},{"name":"Mohr","id":9572,"start":"2014/07/19 21:00:00","percent_done":"10","location":{"lat":40.75686276368797,"lng":-89.29567354791797}},{"name":"Rosenbaum","id":9390,"start":"2014/07/19 21:00:00","percent_done":"10","location":{"lat":39.10752596347593,"lng":-97.55147398486733}},{"name":"Kutch","id":6083,"start":"2014/07/19 21:00:00","percent_done":"10","location":{"lat":41.678520469367506,"lng":-92.06960878791287}},{"name":"Halvorson","id":1033,"start":"2014/07/19 21:00:00","percent_done":"10","location":{"lat":41.487684487272055,"lng":-87.54109315890818}},{"name":"Heller","id":2307,"start":"2014/07/19 21:00:00","percent_done":"10","location":{"lat":40.37915966557339,"lng":-98.1481566840317}},{"name":"Bayer","id":3705,"start":"2014/07/19 21:00:00","percent_done":"10","location":{"lat":41.681303206039594,"lng":-97.65785245099104}},{"name":"Gibson","id":1944,"start":"2014/07/19 21:00:00","percent_done":"10","location":{"lat":39.83022113647312,"lng":-89.11792068826034}},{"name":"Jacobson","id":8718,"start":"2014/07/19 21:00:00","percent_done":"10","location":{"lat":39.408267211075874,"lng":-89.90258613242767}},{"name":"Skiles","id":2213,"start":"2014/07/19 21:00:00","percent_done":"10","location":{"lat":40.889857886265965,"lng":-97.598612918891}},{"name":"Williamson","id":3587,"start":"2014/07/19 21:00:00","percent_done":"10","location":{"lat":41.34440425611101,"lng":-94.46825939803384}},{"name":"Nolan","id":2446,"start":"2014/07/19 21:00:00","percent_done":"10","location":{"lat":41.69674635343254,"lng":-87.66699003721587}},{"name":"Macejkovic","id":5437,"start":"2014/07/19 21:00:00","percent_done":"10","location":{"lat":41.36164793549106,"lng":-97.0293450131081}},{"name":"Hessel","id":3347,"start":"2014/07/19 21:00:00","percent_done":"10","location":{"lat":41.86459363475442,"lng":-99.24269968238659}},{"name":"Lebsack","id":8262,"start":"2014/07/19 21:00:00","percent_done":"10","location":{"lat":41.92303160149604,"lng":-95.4356271921657}},{"name":"Schmidt","id":2602,"start":"2014/07/19 21:00:00","percent_done":"10","location":{"lat":40.81484591229819,"lng":-95.12161127515137}},{"name":"Sipes","id":8717,"start":"2014/07/19 21:00:00","percent_done":"10","location":{"lat":39.284163244673984,"lng":-90.40732745211571}},{"name":"Lowe","id":1229,"start":"2014/07/19 21:00:00","percent_done":"10","location":{"lat":41.085136195318775,"lng":-96.59829031876288}},{"name":"Hansen","id":365,"start":"2014/07/19 21:00:00","percent_done":"10","location":{"lat":41.72400039937347,"lng":-93.77122125276364}},{"name":"Senger","id":7764,"start":"2014/07/19 21:00:00","percent_done":"10","location":{"lat":39.62987681492232,"lng":-94.34082788452505}},{"name":"Daugherty","id":4344,"start":"2014/07/19 21:00:00","percent_done":"10","location":{"lat":41.07966560581699,"lng":-89.94978335048071}},{"name":"Johns","id":7109,"start":"2014/07/19 21:00:00","percent_done":"10","location":{"lat":39.86002930337563,"lng":-98.051884083217}},{"name":"Heidenreich","id":1502,"start":"2014/07/19 21:00:00","percent_done":"10","location":{"lat":41.61800269121304,"lng":-91.60416680378839}},{"name":"Veum","id":4259,"start":"2014/07/19 21:00:00","percent_done":"10","location":{"lat":40.91679221428931,"lng":-94.63820267599075}},{"name":"Kub","id":3605,"start":"2014/07/19 21:00:00","percent_done":"10","location":{"lat":40.44385451418348,"lng":-94.70954518825747}},{"name":"Parisian","id":6494,"start":"2014/07/19 21:00:00","percent_done":"10","location":{"lat":40.47120262323879,"lng":-99.89560249461792}},{"name":"Russel","id":8957,"start":"2014/07/19 21:00:00","percent_done":"10","location":{"lat":40.3026902071666,"lng":-91.38639037744142}},{"name":"Pfannerstill","id":7432,"start":"2014/07/19 21:00:00","percent_done":"10","location":{"lat":39.28652021279559,"lng":-98.23856089184991}},{"name":"Hickle","id":8337,"start":"2014/07/19 21:00:00","percent_done":"10","location":{"lat":40.66184065830894,"lng":-93.66889243400655}},{"name":"Stark","id":6921,"start":"2014/07/19 21:00:00","percent_done":"10","location":{"lat":42.034745797654615,"lng":-94.39815680766478}},{"name":"Abshire","id":5840,"start":"2014/07/19 21:00:00","percent_done":"10","location":{"lat":40.83475681454875,"lng":-95.19988705348223}},{"name":"Simonis","id":9775,"start":"2014/07/19 21:00:00","percent_done":"10","location":{"lat":40.44859504690394,"lng":-87.85375537970103}},{"name":"Rohan","id":3626,"start":"2014/07/19 21:00:00","percent_done":"10","location":{"lat":41.8874036305584,"lng":-93.8249121882487}},{"name":"Gerlach","id":2109,"start":"2014/07/19 21:00:00","percent_done":"10","location":{"lat":42.02768907197751,"lng":-90.72998029892332}},{"name":"Daniel","id":8521,"start":"2014/07/19 21:00:00","percent_done":"10","location":{"lat":39.12256331359968,"lng":-99.20341316531412}},{"name":"Cole","id":4612,"start":"2014/07/19 21:00:00","percent_done":"10","location":{"lat":39.60404668110423,"lng":-95.29908781233243}},{"name":"Trantow","id":130,"start":"2014/07/19 21:00:00","percent_done":"10","location":{"lat":41.940128825278954,"lng":-88.56672577131539}},{"name":"Cartwright","id":6434,"start":"2014/07/19 21:00:00","percent_done":"10","location":{"lat":41.19730071341619,"lng":-92.77552195396274}},{"name":"Will","id":8496,"start":"2014/07/19 21:00:00","percent_done":"10","location":{"lat":39.75869304188527,"lng":-92.25926606976427}},{"name":"Bruen","id":8175,"start":"2014/07/19 21:00:00","percent_done":"10","location":{"lat":41.23581495638937,"lng":-96.16288819457404}},{"name":"Wolf","id":983,"start":"2014/07/19 21:00:00","percent_done":"10","location":{"lat":40.74717665803619,"lng":-96.83760383506305}},{"name":"Johns","id":677,"start":"2014/07/19 21:00:00","percent_done":"10","location":{"lat":40.292975415149705,"lng":-88.7593759029638}},{"name":"Mann","id":1311,"start":"2014/07/19 21:00:00","percent_done":"10","location":{"lat":40.700949042709546,"lng":-98.37519226213917}},{"name":"Russel","id":7693,"start":"2014/07/19 21:00:00","percent_done":"10","location":{"lat":41.67204901217483,"lng":-94.91209772382862}},{"name":"Moore","id":3193,"start":"2014/07/19 21:00:00","percent_done":"10","location":{"lat":39.958110698638485,"lng":-94.32453531902283}},{"name":"Mayer","id":5077,"start":"2014/07/19 21:00:00","percent_done":"10","location":{"lat":41.51080948058516,"lng":-90.11022001169621}},{"name":"Schumm","id":4045,"start":"2014/07/19 21:00:00","percent_done":"10","location":{"lat":41.523023846233265,"lng":-88.28449448188766}},{"name":"Dare","id":3014,"start":"2014/07/19 21:00:00","percent_done":"10","location":{"lat":41.08421758483164,"lng":-91.56369635150767}},{"name":"Williamson","id":7734,"start":"2014/07/19 21:00:00","percent_done":"10","location":{"lat":40.794937742548065,"lng":-99.57564539313316}},{"name":"Donnelly","id":4841,"start":"2014/07/19 21:00:00","percent_done":"10","location":{"lat":41.620774001954125,"lng":-89.29645714969374}},{"name":"Feeney","id":6711,"start":"2014/07/19 21:00:00","percent_done":"10","location":{"lat":40.36868469291367,"lng":-87.780155929178}},{"name":"Aufderhar","id":6009,"start":"2014/07/19 21:00:00","percent_done":"10","location":{"lat":40.03014169135131,"lng":-87.88803903493098}},{"name":"Thiel","id":9816,"start":"2014/07/19 21:00:00","percent_done":"10","location":{"lat":42.09996214802377,"lng":-99.97281573656946}},{"name":"Roob","id":2080,"start":"2014/07/19 21:00:00","percent_done":"10","location":{"lat":41.46813218938187,"lng":-96.5448265202809}},{"name":"Hoppe","id":9221,"start":"2014/07/19 21:00:00","percent_done":"10","location":{"lat":39.12094640536234,"lng":-92.31065349364653}},{"name":"Little","id":9136,"start":"2014/07/19 21:00:00","percent_done":"10","location":{"lat":40.716299266926946,"lng":-93.48905214588157}},{"name":"Beatty","id":7543,"start":"2014/07/19 21:00:00","percent_done":"10","location":{"lat":41.51727942833677,"lng":-89.65049061309546}},{"name":"Zemlak","id":3675,"start":"2014/07/19 21:00:00","percent_done":"10","location":{"lat":39.34362671351992,"lng":-93.79663998158648}},{"name":"Hessel","id":7936,"start":"2014/07/19 21:00:00","percent_done":"10","location":{"lat":42.03800543318503,"lng":-95.15233599059283}},{"name":"Feeney","id":6467,"start":"2014/07/19 21:00:00","percent_done":"10","location":{"lat":40.85130784069188,"lng":-98.51010030964389}},{"name":"Green","id":718,"start":"2014/07/19 21:00:00","percent_done":"10","location":{"lat":40.26923782974482,"lng":-90.73669115887023}},{"name":"Hansen","id":3449,"start":"2014/07/19 21:00:00","percent_done":"10","location":{"lat":40.85419873464853,"lng":-88.74077868778258}},{"name":"Breitenberg","id":9548,"start":"2014/07/19 21:00:00","percent_done":"10","location":{"lat":39.2643254745286,"lng":-98.73928595581091}},{"name":"Huel","id":5533,"start":"2014/07/19 21:00:00","percent_done":"10","location":{"lat":40.76121138865128,"lng":-89.64812836647033}},{"name":"Hilll","id":2236,"start":"2014/07/19 21:00:00","percent_done":"10","location":{"lat":39.480305704893546,"lng":-98.84673278187401}},{"name":"Beatty","id":2550,"start":"2014/07/19 21:00:00","percent_done":"10","location":{"lat":41.75828670351766,"lng":-97.0015548119787}},{"name":"Nikolaus","id":9148,"start":"2014/07/19 21:00:00","percent_done":"10","location":{"lat":41.228929076250644,"lng":-88.52729793302714}},{"name":"Dietrich","id":6383,"start":"2014/07/19 21:00:00","percent_done":"10","location":{"lat":39.2058408303652,"lng":-99.86934671984054}},{"name":"Stanton","id":7601,"start":"2014/07/19 21:00:00","percent_done":"10","location":{"lat":39.253449564008044,"lng":-94.25890606422908}},{"name":"Nikolaus","id":5527,"start":"2014/07/19 21:00:00","percent_done":"10","location":{"lat":40.507766692107545,"lng":-92.15797758884727}},{"name":"Maggio","id":3457,"start":"2014/07/19 21:00:00","percent_done":"10","location":{"lat":39.549285309761764,"lng":-94.16470561865717}},{"name":"Terry","id":6336,"start":"2014/07/19 21:00:00","percent_done":"10","location":{"lat":40.97894539674744,"lng":-95.59113888922147}},{"name":"Schmeler","id":5499,"start":"2014/07/19 21:00:00","percent_done":"10","location":{"lat":40.07627100790851,"lng":-97.78603165028616}},{"name":"Kessler","id":612,"start":"2014/07/19 21:00:00","percent_done":"10","location":{"lat":40.1392398214899,"lng":-100.08483697511255}},{"name":"Leffler","id":7944,"start":"2014/07/19 21:00:00","percent_done":"10","location":{"lat":39.628986299876125,"lng":-99.91188283790834}},{"name":"Powlowski","id":9413,"start":"2014/07/19 21:00:00","percent_done":"10","location":{"lat":39.643483247747646,"lng":-90.3515785510186}},{"name":"Abernathy","id":6145,"start":"2014/07/19 21:00:00","percent_done":"10","location":{"lat":39.35727060227655,"lng":-88.60570844020694}},{"name":"White","id":5091,"start":"2014/07/19 21:00:00","percent_done":"10","location":{"lat":41.894327014125885,"lng":-95.68727395231835}},{"name":"Ward","id":4394,"start":"2014/07/19 21:00:00","percent_done":"10","location":{"lat":40.207745066517965,"lng":-90.92819922198541}},{"name":"Howe","id":8585,"start":"2014/07/19 21:00:00","percent_done":"10","location":{"lat":39.20004027467221,"lng":-95.33006581934168}},{"name":"Reinger","id":3727,"start":"2014/07/19 21:00:00","percent_done":"10","location":{"lat":39.4936233825516,"lng":-88.17764818472787}},{"name":"Mohr","id":7983,"start":"2014/07/19 21:00:00","percent_done":"10","location":{"lat":39.713801216939466,"lng":-94.29479111372493}},{"name":"Renner","id":5877,"start":"2014/07/19 21:00:00","percent_done":"10","location":{"lat":39.377797125279905,"lng":-91.00325728664174}},{"name":"Casper","id":4495,"start":"2014/07/19 21:00:00","percent_done":"10","location":{"lat":40.578048014221714,"lng":-99.86989565393887}},{"name":"Ullrich","id":5025,"start":"2014/07/19 21:00:00","percent_done":"10","location":{"lat":39.73909587915987,"lng":-99.62497521461918}},{"name":"Brekke","id":9232,"start":"2014/07/19 21:00:00","percent_done":"10","location":{"lat":39.53414939614013,"lng":-94.60437849783338}},